stop_id,stop_name,stop_desc,stop_lat,stop_lon,zone_id,stop_url,location_type,parent_station
153037,"Luonnostakylä E",436,64.835139766266,25.2052743544297,,,,
187929,"Sallisentie P",436,64.8295811935072,25.2433470517286,,,,
101007,"Vesankuja P",436,64.8307299543034,25.233239782548,,,,
100988,"Jaakola I",436,64.8658673922479,25.0194287128488,,,,
100987,"Jaakola L",436,64.8658785278065,25.0190960575832,,,,
100991,"Sipolanperä L",436,64.8646571805024,25.1185010665482,,,,
101011,"Hirvasniemi P",436,64.8259485205085,25.2523370167751,,,,
187930,"Sallisentie E",436,64.8290760536827,25.2448443283617,,,,
150129,"Olavila E",436,64.9037979816213,25.1116673887518,,,,
100992,"Sipolanperä I",436,64.8644574499615,25.1209490223239,,,,
150132,"Pitkännokantie P",436,64.9123585014821,25.1032996220559,,,,
150120,"Tillinkuja P",436,64.8718022232973,25.1572753250627,,,,
187925,"Luontotie P",436,64.8344779999194,25.207606448236,,,,
150131,"Pitkännokantie E",436,64.9114275298634,25.1036772913839,,,,
150125,"Kauppi E",436,64.8920514544948,25.1275570182623,,,,
101016,"Mikkola E",436,64.8207908128441,25.273310970819,,,,
187931,"Hirvasniemi E",436,64.8257418864958,25.2528951237752,,,,
100986,"Korvenkylä I",436,64.8648678509898,25.0091062092329,,,,
150130,"Olavila P",436,64.9042980722151,25.1111418380151,,,,
150121,"Uudenrannantie E",436,64.8774861518897,25.1512304892871,,,,
100993,"Lappi L",436,64.8619269642768,25.1356252901259,,,,
190160,"Karintie E",436,64.8403117775124,25.1798733216595,,,,
150126,"Kauppi P",436,64.8925676726511,25.126708466412,,,,
100990,"Karjala I",436,64.8644724189494,25.0424160821193,,,,
101014,"Letontie E",436,64.8231916588769,25.2611307727768,,,,
100994,"Lappi I",436,64.8616725604727,25.1368872102245,,,,
100996,"Lapinkylä E",436,64.8588683416073,25.1460209596635,,,,
153038,"Luonnostakylä P",436,64.8353884139072,25.2044129528918,,,,
187924,"Jokivainio E",436,64.8362750095108,25.2013499485361,,,,
100999,"Granlund P",436,64.8477480473916,25.1696030294025,,,,
100989,"Karjala L",436,64.8647515429926,25.0414116860697,,,,
100985,"Korvenkylä L",436,64.8645997222394,25.0071868953971,,,,
101000,"Granlund E",436,64.8468441483307,25.1713735287284,,,,
150134,"Varjakka P",436,64.9173551401275,25.1031207538368,,,,
150124,"Haminanmaa P",436,64.8869044386049,25.1361343524048,,,,
150119,"Tillinkuja E",436,64.8711216224885,25.1574287247221,,,,
187927,"Taarinkuja P",436,64.8324661718779,25.2174447419135,,,,
190159,"Karintie P",436,64.84041464291,25.17981747027,,,,
100995,"Lapinkylä P",436,64.8595617227296,25.1443608019263,,,,
187928,"Vesankuja E",436,64.8308404431706,25.2355740826312,,,,
187926,"Luontotie E",436,64.8341122992417,25.2091338169386,,,,
150118,"Säikkälänperä P",436,64.8645312645096,25.1530621947315,,,,
101006,"Taarinkuja E",436,64.8323053795683,25.2187576459332,,,,
150127,"Kulju E",436,64.8993811290498,25.1162732346815,,,,
187923,"Jokivainio P",436,64.8364527656369,25.1999686704497,,,,
150117,"Säikkälänperä E",436,64.8640011314018,25.152348949209,,,,
101015,"Mikkola P",436,64.821114405183,25.2711338006791,,,,
101013,"Letontie P",436,64.8236112607296,25.2598013891902,,,,
150128,"Kulju P",436,64.8997838388469,25.1158707930291,,,,
100998,"Mäkikylä E",436,64.8540711562757,25.1586817693983,,,,
150133,"Varjakka E",436,64.916028857004,25.1031636172113,,,,
190161,"Lumijoki",436,64.8369368208118,25.1884279284649,,,,
150122,"Uudenrannantie P",436,64.878423936495,25.1503756775469,,,,
307136,"Lumijoen peruskoulu P",436,64.8418352578427,25.1797180962691,,,,
150123,"Haminanmaa E",436,64.8862125134431,25.1372849133517,,,,
100997,"Mäkikylä P",436,64.8546665817176,25.157485968991,,,,
185120,"Linnakangastalo P",244,64.9231167861349,25.5574956468991,,,,
101578,"Kuivalanperä E",244,64.9369124348313,25.5130658435977,,,,
171361,"Leppäojantie E",244,64.8966822395461,25.5211260843866,,,,
150072,"Karppilantie P",244,64.8478475177725,25.6419925774197,,,,
189257,"Ylikylä E",244,64.8953055733781,25.5544993173211,,,,
150209,"Ouluntulli P",244,64.9387118520956,25.5318083550506,,,,
147973,"Ollila th E",244,64.92615371995,25.5062537719178,,,,
171360,"Kempele E",244,64.9121308617009,25.5059607462831,,,,
150052,"Keinäsentie P",244,64.8834378993561,25.5720216888607,,,,
121294,"Haapamaa",244,64.8954980235214,25.5588804879649,,,,
101064,"Juvani E",244,64.9231891578078,25.4673594119741,,,,
150203,"Väärälä E",244,64.9287319492315,25.5369876375913,,,,
171366,"Riihivainio P",244,64.9056755910876,25.5196995644,,,,
189273,"Ouluntullin ramppi E",244,64.9399207672002,25.5371590207223,,,,
171365,"Riihivainio E",244,64.904694676242,25.5205353517843,,,,
121237,"Kokkorinne E",244,64.9160600566112,25.5588380486027,,,,
150071,"Bask E",244,64.8495828680362,25.6368353165631,,,,
150199,"Takkinen E",244,64.9194374908318,25.542811151449,,,,
121273,"Kokkokaarto P",244,64.909818910723,25.5481139423687,,,,
190173,"Kirkonmäki E",244,64.9142315826218,25.4867903040206,,,,
101058,"Tiilitie E",244,64.9122004414361,25.4995210886088,,,,
97704,"Rajakorpi E",244,64.8775079566383,25.5128070832631,,,,
150202,"Väärälä P",244,64.9271631071287,25.5412253081496,,,,
150198,"Tarjusoja P",244,64.9162555043554,25.5434107663877,,,,
190069,"Haapamaantie P",244,64.8951186713498,25.5452147237412,,,,
97701,"Isoaukio P",244,64.8712160795383,25.5073359238073,,,,
171364,"Takatie P",244,64.9011656575296,25.5218857069339,,,,
150068,"Kälkäinen P",244,64.8527082508419,25.6275908389557,,,,
188518,"Pirilä P",244,64.9161824341701,25.4874309261465,,,,
309422,"Kytösavuntie E",244,64.8913450907916,25.5202204928997,,,,
190427,"Zeppelinin ramppi P",244,64.9044883916368,25.5366188498168,,,,
150193,"Köykkyrintie E",244,64.906164183509,25.5454029652557,,,,
150046,"Zeppelin E",244,64.90280325615,25.5407808024118,,,,
307144,"Vedenneidontie E",244,64.9349870868361,25.5646572755641,,,,
150066,"Heikkinen P",244,64.8567333241619,25.6172485040993,,,,
150050,"Kerttula P",244,64.8874549277428,25.562746000859,,,,
150206,"Linnatie E",244,64.9350190230306,25.5309720598815,,,,
308263,"Monitoimitalo P",244,64.9024402728919,25.547172316666,,,,
121295,"Kinnarinpalo E",244,64.8920138747183,25.5576254143901,,,,
150065,"Hovimurto E",244,64.8591565166828,25.6126443601844,,,,
150051,"Kerttula E",244,64.8868613309124,25.5639045928364,,,,
150200,"Takkinen P",244,64.9209141679492,25.5419100407644,,,,
150204,"Kauppi E",244,64.9306935260868,25.5343089388889,,,,
101589,"Vanhapappila P",244,64.9076163393345,25.5200988628681,,,,
300903,"Linnakangastalo E",244,64.9241335772565,25.5577397762465,,,,
309421,"Kytösavuntie P",244,64.8922160753825,25.5203251347465,,,,
150191,"Zimmari E",244,64.9035458094256,25.5424301488805,,,,
147971,"Sohjanantie E",244,64.9280344200411,25.5094786816675,,,,
150067,"Heikkinen E",244,64.8561261954266,25.617929245381,,,,
147975,"Savikorpi P",244,64.9232474497041,25.4969394756066,,,,
150045,"Zeppelin P",244,64.9037977458771,25.5401723097208,,,,
150053,"Keinäsentie E",244,64.8827956563588,25.5739955770269,,,,
147972,"Ollila th P",244,64.9267020088644,25.5075945249447,,,,
308738,"Ylikylän koulu P",244,64.8979597439054,25.543715734953,,,,
101048,"Vihiluoto P",244,64.942665151851,25.4529859402793,,,,
101584,"Takkulantie E",244,64.9221058041065,25.5104461964156,,,,
307142,"Pirttilä E",244,64.9401500235593,25.5605828054254,,,,
189256,"Ylikylä P",244,64.895306220527,25.5543732278081,,,,
121272,"Kokkokaarto E",244,64.9097871849799,25.5478850485729,,,,
307150,"Haukkakaarto E",244,64.919190240528,25.5559593625762,,,,
101059,"Tiilitie P",244,64.9123696365237,25.4975106864081,,,,
97702,"Isoaukio E",244,64.8702665399391,25.5065369897203,,,,
187934,"Kirkonmäki P",244,64.9142809343592,25.4865182067794,,,,
150063,"Riikonen E",244,64.8624216646551,25.6055446095758,,,,
150064,"Hovimurto P",244,64.8598317662404,25.6111550873929,,,,
101577,"Kuivalanperä P",244,64.9378484865842,25.5139850740964,,,,
307143,"Vedenneidontie P",244,64.9351214525391,25.5646922672356,,,,
101057,"Kempele P",244,64.9121317722739,25.5057058857781,,,,
150070,"Bask P",244,64.849903644066,25.6358997041656,,,,
150201,"Hentilä E",244,64.9246090010388,25.5418574120285,,,,
101049,"Vihiluoto E",244,64.9422289430879,25.4504759931908,,,,
150205,"Kauppi P",244,64.9313451146969,25.5338055710481,,,,
307146,"Miessuontie E",244,64.9315870846019,25.5637388489044,,,,
190428,"Zeppelinin ramppi E",244,64.9051128238548,25.534416897046,,,,
121248,"Kuunsilta P",244,64.9144465390123,25.5593810903915,,,,
188517,"Pirilä E",244,64.9167477538126,25.4872325341552,,,,
101579,"Hakamaa P",244,64.9351920818993,25.5122067846551,,,,
150194,"Köykkyrintie P",244,64.9066556238869,25.5449949650504,,,,
101062,"Kempeleen yläaste",244,64.9170091851239,25.4771923292839,,,,
171363,"Takatie E",244,64.90107611406,25.5218847946556,,,,
171368,"Kunnantalo P",244,64.9126902503391,25.5088620591583,,,,
307145,"Miessuontie P",244,64.9322071611431,25.5635715524942,,,,
171367,"Kunnantalo E",244,64.9126505740196,25.5086790078315,,,,
190070,"Haapamaantie E",244,64.8944386343009,25.5459879481262,,,,
308264,"Monitoimitalo E",244,64.9033104133729,25.5471536111611,,,,
150059,"Ketolanperä E",244,64.8688191527007,25.5889516909844,,,,
121247,"Kuunsilta E",244,64.9142303602088,25.5592619675672,,,,
101582,"Sohjanantie th E",244,64.9277264902771,25.5113886903381,,,,
121265,"Tiilimestarinrinne P",244,64.9119774034906,25.5592574720998,,,,
308265,"Kitulankuja P",244,64.9004806989306,25.5424465915684,,,,
308739,"Ylikylän koulu E",244,64.8966770588628,25.54417652389,,,,
307149,"Haukkakaarto P",244,64.9184023491183,25.5568433814367,,,,
187986,"Kempeleen paloasema E",244,64.9073821908502,25.5258919981482,,,,
101590,"Vanhapappila E",244,64.9075849461514,25.5206357581891,,,,
190289,"Hentilä P",244,64.9250765506063,25.541940613123,,,,
150048,"Seppäsentie E",244,64.890129573127,25.5578694050465,,,,
101580,"Hakamaa E",244,64.9339480457312,25.5116046934915,,,,
101583,"Takkulantie P",244,64.9231062687071,25.5106249530747,,,,
308266,"Kitulankuja E",244,64.9004914105191,25.5425259904897,,,,
101591,"Kempeleen paloasema P",244,64.9074541765683,25.5260790527818,,,,
301593,"Ketolanperäntie",244,64.8949315835627,25.5463829285504,,,,
189655,"Savikorpi E",244,64.9228139709747,25.4962018460444,,,,
150207,"Linnatie P",244,64.9357075672676,25.5312660833626,,,,
150061,"Rasila E",244,64.8666846582876,25.5994624424212,,,,
101586,"Niemeläntie P",244,64.916267884367,25.5093643290309,,,,
101065,"Juvani P",244,64.9239104449258,25.4659321909635,,,,
150056,"Palonperä P",244,64.8738702555645,25.58253931831,,,,
150208,"Ouluntulli E",244,64.9378534155311,25.5315070788664,,,,
101576,"Jarva E",244,64.9408731347904,25.5173744655294,,,,
150069,"Kälkäinen E",244,64.8522440137501,25.6289424172283,,,,
150057,"Palonperä E",244,64.8733007979834,25.5836791001323,,,,
101585,"Niemeläntie E",244,64.9162593034927,25.5093625656857,,,,
307137,"Koulutie",244,64.9179030313021,25.4780999700194,,,,
301121,"Kempele koulukeskus",244,64.918437348934,25.4803012312968,,,,
121264,"Tiilimestarinrinne E",244,64.9112475113454,25.5588664528375,,,,
150060,"Rasila P",244,64.8670435495587,25.597492037131,,,,
101063,"Kempeleen yläaste E",244,64.9171612363634,25.4768651390287,,,,
150197,"Tarjusoja E",244,64.9155966451026,25.5431257009038,,,,
307147,"Tuhkimonkaarre P",244,64.9258904031231,25.5585958016287,,,,
171362,"Leppäojantie P",244,64.8976774174946,25.5213322038473,,,,
150055,"Pyykönmutka E",244,64.8788307820723,25.5802223167555,,,,
150073,"Karppilantie E",244,64.8474055578291,25.6432894019041,,,,
101581,"Sohjanantie P",244,64.9289099914165,25.5118301458244,,,,
150062,"Riikonen P",244,64.8635466753596,25.6045933248232,,,,
150058,"Ketolanperä P",244,64.8695336822591,25.5878763667187,,,,
307148,"Satumaantie E",244,64.9273095282502,25.5605457214073,,,,
152421,"Kinnarinpalo P",244,64.8928498473036,25.5569472018195,,,,
150049,"Seppäsentie P",244,64.8899354355179,25.5585779378882,,,,
97703,"Rajakorpi P",244,64.8783998511981,25.5138202592251,,,,
150054,"Pyykönmutka P",244,64.8794711274359,25.5795095144606,,,,
150192,"Zimmari P",244,64.9037723483597,25.5447089899544,,,,
97628,"Saunasuo P",425,64.6180517495759,25.6467030392133,,,,
187932,"Luontokeskus th E",425,64.8196319752007,25.3116018558568,,,,
97665,"Ollila P",425,64.7568957473434,25.5492631921564,,,,
97664,"Ollila E",425,64.7557216680232,25.5498678554497,,,,
97626,"Nakkulanperä P",425,64.5574990821723,25.6813047395083,,,,
97690,"Suni E",425,64.8238734587902,25.4805685393609,,,,
97682,"Lampola E",425,64.8016621054394,25.514984254574,,,,
97697,"Pikku-Tupos P",425,64.8543089142947,25.4985519163524,,,,
304311,"Mutkalankaari P",425,64.8017937016611,25.4241958729685,,,,
100062,"Haarakangas E",425,64.7120913006719,25.3905410161537,,,,
101028,"Rantakylän koulu E",425,64.8146019121878,25.3424680244981,,,,
190367,"Rantatie I",425,64.793120755894,25.3905758816072,,,,
231430,"Juotto E",425,64.7920281007076,25.5372161029209,,,,
97685,"Arotie P",425,64.8075936772893,25.5015507146032,,,,
101039,"Lumijoentie P2",425,64.8066953678394,25.4071127974687,,,,
190216,"Tupos E",425,64.8636707396704,25.490757378095,,,,
150137,"Toivontie P",425,64.8178689940239,25.4378155505767,,,,
97700,"Tupos th E",425,64.8628811248391,25.5018748806448,,,,
97687,"Jokela P",425,64.8188922271873,25.4814778138755,,,,
97673,"Marttila P (Liminka)",425,64.7773597318064,25.5481444727815,,,,
309847,"Haurukyläntie pohjoinen th",425,64.7365523053537,25.5683937617412,,,,
150146,"Oikotie th P",425,64.8548622164148,25.4885942583552,,,,
190075,"Niittomiehentie P",425,64.8148156400174,25.4297555603087,,,,
150148,"Tupos E2",425,64.8640408281803,25.4893958822978,,,,
97670,"Ketunmaan th E",425,64.7725955980466,25.5481591514092,,,,
97686,"Temmesjoki E",425,64.8167738505886,25.4821827368135,,,,
188406,"Liminka th I",425,64.7998463182342,25.4219920624307,,,,
97668,"Ala-Temmes ns E",425,64.7682779618447,25.547891569243,,,,
187700,"Tuomiarontie Liminka L",425,64.8685827460806,25.45499436356,,,,
97669,"Ala-Temmes ns P",425,64.7695643057516,25.5479748662674,,,,
231882,"Ojanperänkangas P",425,64.7966307967921,25.4051607846309,,,,
150038,"Pajutie P",425,64.8082289032916,25.4454737808704,,,,
100063,"Haarakangas P",425,64.7129608989278,25.391399704264,,,,
150143,"Tupoksentie E",425,64.842797421326,25.4742356949603,,,,
153145,"Sunilantie P",425,64.8088135307052,25.4048291988213,,,,
189658,"Jukurintie P",425,64.852559692042,25.5346759888201,,,,
101219,"Ala-Temmes E",425,64.7626583819056,25.5505111246373,,,,
150037,"Pajutie E",425,64.8082394329491,25.4465705970402,,,,
100060,"Hirvineva th E",425,64.7000091241074,25.3655066719249,,,,
97677,"Riikola P",425,64.7885709557145,25.5416733144119,,,,
187698,"Lintulammentie L",425,64.8665881509123,25.4641999522726,,,,
101029,"Leisu P",425,64.8144053466108,25.3498724731831,,,,
153090,"Niemelä E",425,64.8189600109225,25.315994984887,,,,
97667,"Ala-Temmes P",425,64.7634743119336,25.5479666050368,,,,
150145,"Oikotie th E",425,64.8540796906762,25.4876558856042,,,,
101030,"Leisu E",425,64.8144464076675,25.3511715932294,,,,
97661,"Kettunen P",425,64.7483705886875,25.559104644148,,,,
97666,"Ala-Temmes E2",425,64.7622668215472,25.5479304697789,,,,
190217,"Tupos th P2",425,64.8636563176542,25.5008213558314,,,,
97676,"Riikola E",425,64.7874890629951,25.5428060982057,,,,
230853,"Kurkitie E",425,64.8079236234233,25.4295440484857,,,,
97695,"Uutela P",425,64.8494919361849,25.4963470336715,,,,
188408,"Kurki th I",425,64.8063003977395,25.4558690409594,,,,
97680,"Huhta E",425,64.7963243007403,25.5271048401211,,,,
150142,"Selkämaa th P",425,64.8334149855982,25.4630028942259,,,,
97671,"Ketunmaan th P",425,64.7737460296595,25.5482218513281,,,,
150139,"Pelto E",425,64.8285919817705,25.4572323088235,,,,
101023,"Niemelä P",425,64.819184959885,25.3146024455947,,,,
153130,"Kirkko th E",425,64.8105016301354,25.4074754388858,,,,
97672,"Marttila E (Liminka)",425,64.7761315462202,25.5481835717914,,,,
97699,"Tupos th P",425,64.8641487248583,25.5026837393,,,,
101035,"Myllykuja P",425,64.8085251693354,25.390646444573,,,,
190076,"Temmesjoki P",425,64.824882400118,25.4529971136465,,,,
101038,"Värminkosken th E",425,64.8069798282004,25.4009753182525,,,,
101033,"Niskanen P",425,64.8117583892095,25.3757684727121,,,,
101042,"Pappilanpelto E",425,64.8033719437398,25.4207957576915,,,,
97692,"Ruhkola E",425,64.8284206763003,25.4813291815185,,,,
153129,"Liminka yläaste E",425,64.8107167240254,25.4130389524106,,,,
101027,"Rantakylän koulu P",425,64.8147345252856,25.3404253981583,,,,
97693,"Rauhala P",425,64.8405480082873,25.4885792824893,,,,
153079,"Hakala P",425,64.8202047809848,25.3031219215857,,,,
187933,"Virkkula E",425,64.8164311326865,25.3277384271079,,,,
190368,"Lännentie P",425,64.8099232632106,25.4708508766164,,,,
187699,"Tuomiarontie Liminka I",425,64.868426431703,25.4568096024723,,,,
97694,"Rauhala E",425,64.8395777706445,25.4879722451787,,,,
190068,"Pusala I",425,64.814154837429,25.4994401376768,,,,
184616,"Pöytäpetäjänpiha P",425,64.8654862395652,25.4632252552333,,,,
98469,"Lännentie E",425,64.8092217873924,25.468432126256,,,,
44469,"Tupos Koulukeskus E",425,64.8592002091518,25.4712167344856,,,,
150040,"Taalintie E",425,64.8081682691994,25.4390514487089,,,,
190219,"Tupos liikenneympyrä L",425,64.8641053571451,25.479954096697,,,,
231883,"Ojanperänkangas E",425,64.7969362618485,25.4066561827881,,,,
97688,"Jokela E",425,64.8182044639459,25.4815952247105,,,,
190067,"Pusala L",425,64.8147881015801,25.4949233342879,,,,
150042,"Kuormatie E",425,64.8083995234288,25.4233838128922,,,,
147970,"Niittypirtti E",425,64.8115064511024,25.4202145827829,,,,
101220,"Vaaranmaa E",425,64.7621169508821,25.5653591811561,,,,
190073,"Lumijoentie P",425,64.8072086001045,25.409128806627,,,,
100064,"Heinijärvi E",425,64.7196795929302,25.3943748851299,,,,
100070,"Lapinkangas th",425,64.7868718416528,25.3699171174805,,,,
100059,"Nuolua pitäjänraja E",425,64.6784266718441,25.3392465344991,,,,
150140,"Pelto P",425,64.8294092899485,25.4582053815705,,,,
184617,"Pöytäpetäjänpiha E",425,64.864513309236,25.4608882424057,,,,
153131,"Kirkko th P",425,64.8109642317123,25.4084468402896,,,,
98461,"Rantatie L",425,64.7925419544149,25.3882249514625,,,,
153143,"Liminka P",425,64.8085757682644,25.4140882570111,,,,
190074,"Niittomiehentie E",425,64.8141764564787,25.4279625878728,,,,
98468,"Honkisuontie I",425,64.8038898799007,25.442928051475,,,,
98458,"Tikkaperä th I",425,64.7796276622799,25.3264573141802,,,,
97684,"Arotie E",425,64.806548216951,25.503960831549,,,,
231429,"Ala-Temmeksen koulu  P",425,64.7818892694715,25.5473182144356,,,,
189659,"Jukurintie E",425,64.8518945549794,25.5358047774925,,,,
231431,"Parras th P",425,64.8128909291965,25.4888897985236,,,,
190066,"Kurkitie P",425,64.8078897586268,25.4311104009474,,,,
230852,"Liminka Pitkäkoski E2",425,64.80810669424,25.455576433669,,,,
98457,"Tikkaperä th L",425,64.7795820050753,25.3228444190789,,,,
97662,"Ylitalo E",425,64.7516210761708,25.5545811797533,,,,
150138,"Temmesjoki E",425,64.8232060589506,25.4507574502504,,,,
190218,"Tupos liikenneympyrä P",425,64.8636603323324,25.4838068615319,,,,
101025,"Virkkula P",425,64.8168765217418,25.325492898596,,,,
231908,"Nuolua pitäjänraja P",425,64.6792801783269,25.3399100519208,,,,
97681,"Huhta P",425,64.7971554582195,25.5252187829408,,,,
190370,"Haaransilta P",425,64.8133007485885,25.4810962651379,,,,
101040,"Lumijoentie E",425,64.8066228418154,25.4098706616637,,,,
150136,"Toivontie E",425,64.8172686047158,25.4364245120423,,,,
98460,"Lapinkangas I",425,64.7881622135647,25.3706553862973,,,,
101018,"Syrjäpalo E",425,64.8197885125275,25.2882631047099,,,,
153078,"Hakala E",425,64.8201333401909,25.3016510351721,,,,
101037,"Värminkosken th P2",425,64.807323084198,25.3986466869909,,,,
98467,"Honkisuontie L",425,64.8033514118024,25.4400936488886,,,,
97627,"Saunasuo E",425,64.6166638637562,25.6470400345093,,,,
153150,"Värminkosken th P",425,64.8075476734856,25.3998163660007,,,,
97674,"Ala-Temmeksen koulu E",425,64.7803439092097,25.5477717523019,,,,
101041,"Pappilanpelto P",425,64.8044077571189,25.4192439323027,,,,
153144,"Sunilantie E",425,64.8084806141842,25.4029514837611,,,,
97691,"Ruhkola P",425,64.8294295767546,25.4817985454945,,,,
97660,"Kettunen E",425,64.7472656397794,25.5603532506409,,,,
188460,"Kurki th L",425,64.8063725738372,25.4557803367245,,,,
101017,"Syrjäpalo P",425,64.8198802617654,25.2863924655061,,,,
305730,"Virkkula",425,64.820132046798,25.3016303414711,,,,
187697,"Lintulammentie I",425,64.8662864639992,25.4656235978907,,,,
97659,"Kakarasuo P",425,64.7371647744134,25.5685922196608,,,,
190335,"Parras th E",425,64.8134848001787,25.4876207437794,,,,
100066,"Totte E",425,64.772982334727,25.3718200142349,,,,
171628,"Temmesjoki P",425,64.8164227944678,25.4825727447966,,,,
97683,"Lampola P",425,64.8025418290147,25.5129933583577,,,,
150135,"Niittypirtti P",425,64.8120997481402,25.4218914987505,,,,
100067,"Totte P",425,64.7738775490441,25.3721359554845,,,,
115887,"Kotilehto E",425,64.8555925803003,25.4797194357911,,,,
100061,"Hirvineva th P",425,64.7009009504106,25.3676513696213,,,,
101221,"Vaaranmaa P",425,64.7624611269795,25.5671035170017,,,,
101036,"Myllykuja E",425,64.8081834941476,25.3929033924889,,,,
184615,"Pitkäkoski E",425,64.8085295243661,25.4529465074618,,,,
101031,"Rantakylän th P",425,64.8140793134737,25.3581661178217,,,,
97698,"Pikku-Tupos E",425,64.8533051655924,25.498267390612,,,,
188407,"Liminka th L",425,64.800199359098,25.423418929153,,,,
115886,"Tupos Koulukeskus P",425,64.8592774556835,25.4715686671634,,,,
97663,"Ylitalo P",425,64.7524784370867,25.5535709311932,,,,
150035,"Selkäsenkylä I",425,64.7797423019305,25.3740304822327,,,,
100065,"Heinijärvi P",425,64.7206948217304,25.3943191045277,,,,
101032,"Rantakylä th E",425,64.8139526619123,25.3604635647006,,,,
100069,"Selkäsenkylä P",425,64.7804726962044,25.3722397750353,,,,
190771,"Liminka E",425,64.8084891110483,25.4141972844041,,,,
153128,"Liminka yläaste P",425,64.8105089128423,25.4140277146903,,,,
100068,"Selkäsenkylä E",425,64.7794016914084,25.3724893817973,,,,
101022,"Luontokeskus th P",425,64.8199688308676,25.308806189173,,,,
150008,"Heinijärvi I",425,64.7200161809799,25.395974962166,,,,
150147,"Tupos P",425,64.8642845871824,25.4919150038531,,,,
150141,"Selkämaa th E",425,64.8323116033246,25.4616683401801,,,,
101034,"Niskanen E",425,64.8114084317974,25.3775550977439,,,,
97689,"Suni P",425,64.8248044741842,25.4806542594103,,,,
150039,"Taalintie P",425,64.8082220381837,25.4405859552473,,,,
301592,"Tupos liikenneympyrä E",425,64.8632354791781,25.4796604384801,,,,
97679,"Juotto P",425,64.7928580305999,25.5352363537056,,,,
97658,"Kakarasuo E",425,64.7359787417391,25.5685987245298,,,,
147969,,425,64.8067008409615,25.4087433767977,,,,
190369,"Haaransilta E",425,64.8127582565478,25.4798628904981,,,,
190215,"Tupoksentie P",425,64.8437804637299,25.4754206115212,,,,
98459,"Lapinkangas L",425,64.7876290031246,25.3682257838117,,,,
97696,"Uutela E",425,64.8485571197718,25.4956700779771,,,,
150043,"Kuormatie P",425,64.8084429585731,25.4229952833819,,,,
115888,"Kotilehto P",425,64.855752746072,25.4788849290457,,,,
148182,"Päivärinne P",494,64.8821871172113,25.8691415870554,,,,
189731,"Ojala E",494,64.8550720784749,25.9113348612223,,,,
148037,"Veturitie E",494,64.8015942355747,26.0130310073029,,,,
98750,"Männikkö P",494,64.8631467534816,25.8858913871852,,,,
148023,"Saarela E",494,64.5595870838873,26.3037216379758,,,,
150111,"Jurvakainen I",494,64.8320749207141,26.0598824878815,,,,
171711,"Malurintie P",494,64.8878526503813,25.8213916497028,,,,
150237,"Tuohino-ojantie P",494,64.8894881197517,25.805791274652,,,,
148204,"Laukka silta E",494,64.8501522536822,25.9154450896299,,,,
98766,"Soso P",494,64.8279967441242,25.926115283676,,,,
98790,"Suokylä th P",494,64.7927942005723,26.0749347593262,,,,
101299,"Paavolankula E",494,64.8482877109593,25.9012569171466,,,,
148222,"Koskela E",494,64.8355153539463,26.0013297919394,,,,
148061,"Leppiniemi P",494,64.8436157337825,26.0428117070048,,,,
150235,"Niskalantie E",494,64.8872853149246,25.8128380889941,,,,
148233,"Pälli E",494,64.8451642554849,26.201632454227,,,,
148172,"Roininen P",494,64.8937802795544,25.8530367405046,,,,
184451,"Ilo-oja P",494,64.8566125074282,25.9360972352012,,,,
148192,"Rahko P",494,64.8652870967104,25.8955959324297,,,,
148041,"Leppiniemi th P2",494,64.8057446989833,26.0143163496813,,,,
305705,"Kanervatie E",494,64.8871513139368,25.8620654268248,,,,
148189,"Laivurintie P",494,64.8706756722179,25.8871120920438,,,,
101304,"Takalonperä P",494,64.8538195357475,25.9307464578654,,,,
98739,"Malurintie E",494,64.8876014520482,25.8226606114293,,,,
98782,"Leppiniemi th E",494,64.8050739253003,26.0122990488048,,,,
189534,"Nykäläntie E",494,64.8055433489661,26.0015667827577,,,,
148202,"Laukka silta P",494,64.8507966791827,25.9151124471838,,,,
148215,"Hartikka P",494,64.8282627047006,25.9709582536092,,,,
309635,"Veturitie 10",494,64.8046676812486,25.9944540866731,,,,
148211,"Ketolanoja P",494,64.8294397462021,25.9643534911565,,,,
306517,"Kieksi P",494,64.8478897289216,26.0164531854419,,,,
98775,"Keskustie P",494,64.8085767334415,25.9899008045724,,,,
98796,"Hyrkäs P",494,64.789149119776,26.1346922784877,,,,
98760,"Rönköntie P",494,64.8374030329148,25.9086846029484,,,,
98769,"Tyrnävän th E",494,64.8242175801417,25.935450355728,,,,
301154,"Muhosperä (Isterintien th)",494,64.7668917699094,26.1824826655842,,,,
98798,"Muhosperä th P",494,64.78660585302,26.1491060942111,,,,
101301,"Laukan silta E2",494,64.8503210456486,25.9141452735192,,,,
98753,"Kaupintie E",494,64.8565610897989,25.8941384147841,,,,
98788,"Laitilantie P",494,64.7937864996482,26.0654522544285,,,,
98783,"Muhosjoki E",494,64.8053595587807,26.015232136662,,,,
189530,"Tyrnävän th P",494,64.8239468875338,25.9377961435063,,,,
98755,"Keränen E",494,64.8528584899625,25.8963893109542,,,,
148178,"Käpykankaantie E",494,64.8871408023692,25.8620801785668,,,,
189662,"Tuppu P",494,64.7071850601552,26.0142139873601,,,,
148227,"Montan leirintäalue P",494,64.8431390378243,26.0079758774172,,,,
148220,"Montta th E",494,64.8320258097293,25.990795379485,,,,
98791,"Suokylä th E",494,64.7926165087065,26.0772325943419,,,,
231147,"Sammontie P",494,64.8135672397975,25.9731733841319,,,,
153050,"Lehtoseläntie E",494,64.8211033320542,26.0405565771172,,,,
148206,"Nuolikivi E",494,64.8442907532048,25.9214442278583,,,,
98793,"Torpparintie E",494,64.7922858498167,26.0958834503789,,,,
184519,"Ketolanoja E",494,64.8288771468623,25.9677299807618,,,,
148044,"Ponkila E",494,64.8106208718045,26.0190452943568,,,,
148062,"Leppiniemi E",494,64.8436332388292,26.042768904478,,,,
148043,"Ponkila P",494,64.8115722755818,26.020141877583,,,,
189727,"Junnintie E",494,64.8907284522042,25.8571884200553,,,,
150234,"Reinintie P",494,64.8856856715602,25.8183470395894,,,,
148231,"Pälli P",494,64.8456568471828,26.2003242205461,,,,
101302,"Laukan silta P2",494,64.8507274990879,25.9167455526382,,,,
98744,"Laitasaaren koulu P",494,64.8735699740965,25.8598390647024,,,,
307165,"Tyrnävän raja",494,64.7975813844918,25.8822526722211,,,,
148229,"Kieksi E",494,64.848000332088,26.0170433069823,,,,
98786,"Honkala P",494,64.7977026657436,26.0495845125309,,,,
189535,"Syväyksentie P",494,64.7913773865613,26.1202558175257,,,,
98761,"Rönköntie E",494,64.8357825253006,25.9110675281416,,,,
98778,"Muhoksen keskusta P",494,64.8070784617172,25.995970555254,,,,
148060,"Leppiniemen kauppa P",494,64.8403908276218,26.0476216192332,,,,
98795,"Syväyksentie E",494,64.7912804676156,26.1222086012396,,,,
101303,"Takalonperä E",494,64.8530289903306,25.9286020112556,,,,
98785,"Kärnä E",494,64.8056460267399,26.029197601958,,,,
148057,"Jurvakainen E",494,64.8320457291448,26.0585667401428,,,,
189728,"Sairaalantie P",494,64.883753858563,25.8668898212827,,,,
301591,"Muhoksen kirkonkylän koulu",494,64.8025264182985,26.0088048114676,,,,
98763,"Vääräntie E",494,64.8323233567396,25.9170424618794,,,,
98777,"Muhoksen keskusta E",494,64.8073034286469,25.9947555751118,,,,
98784,"Kärnä P",494,64.8058064925275,26.0280991934743,,,,
184450,"Ilo-oja E",494,64.8562334054974,25.9354180356493,,,,
148224,"Koskela P",494,64.8364147071456,26.0030850876199,,,,
98752,"Kaupintie P",494,64.8579194980163,25.8931463087205,,,,
101300,"Paavolankuja P",494,64.8487050215088,25.9039294121531,,,,
98768,"Korilantie P",494,64.8255889830182,25.9312021838164,,,,
190290,"Reinintie E",494,64.8856580761021,25.8185471997581,,,,
148035,"Veturitie P",494,64.8003928851578,26.0115702477798,,,,
148218,"Hartikka E",494,64.8280673898436,25.9748373318728,,,,
98792,"Torpparintie P",494,64.7923115409499,26.0920861274254,,,,
309283,"Hopreeninperä",494,64.5756422330978,26.3362746107689,,,,
189666,"Leppiniemen kauppa E",494,64.8399533516078,26.048094750081,,,,
148180,"Sairaalantie E",494,64.8838316005244,25.8667808541175,,,,
148196,"Määttä Könö P",494,64.8593716243145,25.9046373122922,,,,
98746,"Rova P",494,64.8697948076236,25.8670386011904,,,,
148028,"Kylmälä kauppa P",494,64.5697470817876,26.2942293314757,,,,
98756,"Riihikyläntie P",494,64.8485705277038,25.8989369985657,,,,
98762,"Vääräntie P",494,64.8332463202369,25.9152936673202,,,,
98757,"Riihikyläntie E",494,64.8473664353949,25.8996520459346,,,,
98741,"Viskaali th E",494,64.8853537824631,25.8354761846624,,,,
98754,"Keränen P",494,64.8540908871821,25.895651188476,,,,
98774,"Kellotie E",494,64.8093767589432,25.9856250069146,,,,
150236,"Niskalantie P",494,64.8881087284476,25.8108752793193,,,,
98765,"Huovisentie E",494,64.8293656867624,25.923198090273,,,,
148025,"Kylmälä kauppa E",494,64.568568622389,26.2953704672181,,,,
309608,"Huovilan koulu",494,64.8361389736897,25.9345910312665,,,,
98743,"Tuomi talli E",494,64.8801440160468,25.8499284442407,,,,
98738,"Oulun ja Muhoksen raja E",494,64.8920017753212,25.8091556803876,,,,
98751,"Männikkö E",494,64.8622658596904,25.8876081602235,,,,
189730,"Määttä Könö E",494,64.8587485687573,25.9055313016362,,,,
98780,"Nykäläntie P",494,64.8053110580477,26.0026214352689,,,,
189726,"Junnintie P",494,64.8913159823563,25.8563895933153,,,,
152886,"Paasilanmäki P",494,64.9590621459445,26.0005378545217,,,,
148050,"Perukka P",494,64.8203952784584,26.0378019294537,,,,
148034,"Tihinen P",494,64.7957550401692,26.0035147200935,,,,
231888,"Toivolakoti E",494,64.8165123668774,26.0295853122367,,,,
189665,"Takalantie P",494,64.8229536136685,26.0442092781461,,,,
98764,"Huovisentie P",494,64.8304122682114,25.9209835710157,,,,
98781,"Leppiniemi th P",494,64.8051057757186,26.0118594169295,,,,
189732,"Huovila E",494,64.8389052475958,25.9298614952144,,,,
148024,"Saarela P",494,64.5609736456119,26.3026338327494,,,,
148048,"Perukka E",494,64.819402062234,26.0351992082598,,,,
148209,"Ritolantie P",494,64.834330505768,25.9418610186196,,,,
101305,"Kassinen th E",494,64.9492990217687,26.0141939694166,,,,
148032,"Rautionkylä P",494,64.6014673687973,26.2404179581944,,,,
98758,"Nokiantie P",494,64.8452522111208,25.9009614029619,,,,
190815,"Kassinen th P",494,64.9498811005114,26.0141312223088,,,,
150233,"Kangasollinkuja P",494,64.8850044979108,25.8239051827906,,,,
148029,"Rautionkylä E",494,64.6010112978016,26.2413827107509,,,,
148187,"Mettäperäntie E",494,64.8756214472814,25.8792821894571,,,,
98773,"Koivikko E",494,64.8157423282629,25.9683549528913,,,,
121327,"Muhos",494,64.8067961639287,25.991108053959,,,,
148221,"Montta th P",494,64.8325091156542,25.9923305587941,,,,
121328,"Muhos linja-autoasema 2",494,64.8068957476525,25.9909176921589,,,,
98770,"Korivaaran koulu E",494,64.8214842425835,25.9547800871735,,,,
231148,"Sammontie E",494,64.8124598185347,25.9752185793885,,,,
231893,"Ritolantie E",494,64.834037074324,25.9429566165842,,,,
98787,"Honkala E",494,64.7969640496078,26.0505444683158,,,,
148053,"Pohjolantie E",494,64.8264575161498,26.0468358346801,,,,
98747,"Rova th E",494,64.8690167794154,25.8690777397503,,,,
98759,"Nokiantie E",494,64.844115037829,25.9017400451823,,,,
189729,"Laivurintie E",494,64.8704344313369,25.887487510155,,,,
189664,"Evakkotie P",494,64.7801548087772,26.00662126057,,,,
98742,"Tuomi talli P",494,64.8809273076735,25.8485604611509,,,,
148226,"Montan leirintäalue E",494,64.8423736074362,26.007721423056,,,,
98748,"Rova arola P",494,64.8664899534473,25.8769179426379,,,,
148199,"Ojala P",494,64.8552479612754,25.9110410756561,,,,
98771,"Korivaaran koulu P",494,64.8206818257853,25.9567673538552,,,,
152992,"Leppiniemi P",494,64.8435739161499,26.0429134706624,,,,
101308,"Oulu th P",494,64.957333446351,26.0150873195474,,,,
148186,"Mettäperäntie P",494,64.8760762952097,25.8785648573424,,,,
189663,"Evakkotie E",494,64.7795507211084,26.0068290812332,,,,
98737,"Oulun ja Muhoksen raja P",494,64.8927389284919,25.8079424919918,,,,
148174,"Roininen E",494,64.8934486266495,25.8534892897051,,,,
189532,"Kellotie P",494,64.8098116757229,25.9839135610467,,,,
148046,"Toivolakoti P",494,64.8170601155692,26.0306442985103,,,,
309634,"Veturitie 10",494,64.8046797571757,25.9942673427581,,,,
150232,"Kangasollinkuja E",494,64.8850281341513,25.8244470342466,,,,
191214,"Nuolikivi P",494,64.8444423919798,25.9212117719342,,,,
148194,"Rahko E",494,64.8650390595805,25.8959787087643,,,,
148184,"Päivärinne E",494,64.881700615202,25.8698119938409,,,,
148176,"Käpykankaantie P",494,64.8876539128226,25.8613648387514,,,,
98740,"Viskaali th P",494,64.8857796201368,25.8332045930886,,,,
152885,"Paasilanmäki E",494,64.9589904628299,26.0007552570807,,,,
98749,"Rova arola E",494,64.8658393211567,25.878911950282,,,,
148054,"Perhekoti P",494,64.8267364113087,26.0474148895414,,,,
98799,"Muhosperä th E",494,64.7866042976967,26.1508286619623,,,,
98767,"Korilantie E",494,64.8268659061184,25.9284981413898,,,,
189661,"Tuppu E",494,64.7066369465193,26.0142027646667,,,,
98745,"Laitasaari koulu E",494,64.8729619977681,25.8607767225739,,,,
98797,"Hyrkäs E",494,64.7890211041112,26.1351266607805,,,,
500645,"Suokylä",494,64.7874779986701,26.083478189139,,,,
189533,"Keskustie E",494,64.8085260302293,25.9897379862157,,,,
101307,"Oulu th E",494,64.9563841925564,26.0143150238886,,,,
148059,"Jurvakainen P",494,64.832401020491,26.0590933855862,,,,
98789,"Laitilantie E",494,64.7935363102368,26.067557059624,,,,
191215,"Huovila P",494,64.8389052475958,25.9298614952144,,,,
150238,"Tuohino-ojantie E",494,64.8900090779298,25.803765318417,,,,
189531,"Koivikko P",494,64.8162858551946,25.9672720647806,,,,
150081,"Huovinen E",859,64.8299491241691,25.6794610918672,,,,
97653,"Tomperi P",859,64.7068224477806,25.5714097844323,,,,
150085,"Patala E",859,64.8181485582709,25.6914906140171,,,,
101225,"Mäläskä P",859,64.7646047280177,25.6194351573159,,,,
97635,"Purola E",859,64.6485765277198,25.6264791014202,,,,
148010,"Salosentie P",859,64.7895551734979,25.627737449656,,,,
150080,"Huovinen P",859,64.8306682280074,25.6779839255272,,,,
101247,"Forssinkangas P",859,64.781486144881,25.8008960539064,,,,
150018,"Kertturäme E",859,64.7439637807433,25.831264138321,,,,
97634,"Purola P",859,64.6480388109683,25.627342478938,,,,
101226,"Keskikyläntie P",859,64.762875128634,25.6338253263876,,,,
148008,"Kasvi P",859,64.7942625513498,25.6243642525309,,,,
101222,"Nipsinki E",859,64.7636570603369,25.5884623176847,,,,
148017,"Ahintie E",859,64.7696332188465,25.6470713375762,,,,
148011,"Salosentie E",859,64.788912628094,25.6282147056836,,,,
97630,"Ojakylä P",859,64.6319800670947,25.6434127445837,,,,
147998,"Ritokorpi P",859,64.8318525332366,25.5815431358428,,,,
169659,"Peuraniemi P",859,64.8311860743344,25.687541849856,,,,
150017,"Kertturäme P",859,64.744386701931,25.8310475999002,,,,
101144,"Sillankorva",859,64.6373401536739,25.6420448177737,,,,
101244,"Korkalan th E",859,64.7747537272364,25.7676357924191,,,,
148021,"Kaakilantie P",859,64.7608220007871,25.6574901594866,,,,
97656,"Vainio E",859,64.7283462956507,25.5685340798692,,,,
97652,"Tomperi E",859,64.7061070729669,25.5719156079001,,,,
148016,"Ahintie P",859,64.7705194960466,25.6464488326143,,,,
150079,"Niitynmaa th E",859,64.8338352684406,25.670864364593,,,,
169660,"Pohjoisranta P",859,64.8341651743752,25.684741874605,,,,
101246,"Forssinkangas E",859,64.7810852539046,25.7989108662072,,,,
97629,"Ojakylä E",859,64.6309933697442,25.6436565399466,,,,
150075,"Pikkarala th E",859,64.8436274503115,25.6520703749445,,,,
150091,"Tulilanton th E",859,64.8060321641535,25.7058019658124,,,,
150014,"Ylipää L",859,64.7313965558674,25.8309061069744,,,,
190181,"Kunnankuja E",859,64.7630306871603,25.6483421998409,,,,
148001,"Jokisilta E",859,64.8236572143755,25.5919646054195,,,,
148014,"Puronkari P",859,64.7746521783479,25.6447540800043,,,,
150096,"Haarankauppa P",859,64.7843953955782,25.6915954232637,,,,
101232,"Kotimetsä E",859,64.7748566986406,25.6776482727227,,,,
101227,"Keskikyläntie E",859,64.7625281123869,25.6373055037076,,,,
101243,"Markkula E",859,64.7729351930435,25.7571202066852,,,,
148022,"Kaakilantie E",859,64.7604029583938,25.6581798754201,,,,
153195,"Tyrnävän linja-autoasema",859,64.762979909919,25.6468723537791,,,,
150015,"Ylipää I",859,64.7316507642705,25.8324395627621,,,,
169658,"Peuraniemi E",859,64.8309879415894,25.687748352459,,,,
121322,"Simontaival E",859,64.8451464639277,25.6642557124663,,,,
148015,"Puronkari E",859,64.7731410494393,25.645107216584,,,,
150089,"Ojakylä E",859,64.8113690770441,25.7099228493579,,,,
150076,"Murto P",859,64.8403827290859,25.6632383379051,,,,
101241,"Suomela E",859,64.7750776083993,25.7491802402201,,,,
97648,"Korpela E",859,64.6934379994627,25.5856301039065,,,,
150007,"Koskela (Temmes) I",859,64.6108074490426,25.7155824375818,,,,
101223,"Nipsinki P",859,64.7637319797986,25.5904684980958,,,,
101146,"Koskenkyläntie E",859,64.6102155753937,25.7155059308672,,,,
148003,"Nikula th E",859,64.8189648029959,25.6025429848079,,,,
101234,"Haarankauppa E",859,64.7828020565405,25.6905366482359,,,,
148018,"Tyrnävän yläaste P",859,64.7666534799822,25.6496404758766,,,,
148020,"Kirkkomännikkö P",859,64.7629612990247,25.654227389596,,,,
150078,"Niitynmaa th P",859,64.8344848133212,25.6700984725336,,,,
148005,"Ängeslevä th E",859,64.8154783876988,25.609054741894,,,,
147997,"Peräoja E",859,64.8351297502405,25.5765050099319,,,,
101237,"Ala-Siira E",859,64.77943318556,25.7122468731685,,,,
101235,"Haarankauppa I",859,64.782998525474,25.6928409301453,,,,
97639,"Temmes P",859,64.6582082658481,25.6149536832008,,,,
150021,"Uutela E",859,64.7335070775981,25.8303073606978,,,,
101249,"Rauhionoja P",859,64.7847281154149,25.81702657573,,,,
97638,"Temmes E",859,64.656077829284,25.6174284123434,,,,
97636,"Meijerinkylä E",859,64.6528993680761,25.6211410344886,,,,
169661,"Muinaisranta P",859,64.8363341268275,25.6782936721859,,,,
169663,"Murron koulu E",859,64.841687593715,25.669909026566,,,,
97654,"Haurukylä E",859,64.7105284432164,25.5693122191564,,,,
97631,"Kotikoski E",859,64.636471207147,25.6415221638647,,,,
148000,"Jokisilta P",859,64.824343807804,25.5908055450503,,,,
147848,"Meijerinkylä th L",859,64.6532234306605,25.6189953908291,,,,
121326,"Murron koulu P",859,64.8419382480507,25.6699693698545,,,,
101233,"Kotimetsä P",859,64.7754909976413,25.6793293999825,,,,
97646,"Nurkkaperä E",859,64.6847638930353,25.5987047596935,,,,
189278,"Tyrnävä",859,64.7645649548794,25.6518706008564,,,,
147996,"Peräoja P",859,64.8360656174461,25.5753278180983,,,,
150016,"Hirsikorpi E",859,64.772012316066,25.7562650749572,,,,
150044,"Puistola L",859,64.7837600172167,25.689837463011,,,,
169656,"Muinaisranta E",859,64.8364848984045,25.6781952759087,,,,
150093,"Matinolli E",859,64.794295616304,25.6835404949421,,,,
97651,"Leppineva P",859,64.7005486092544,25.5761222364575,,,,
101224,"Mäläskä E",859,64.764794748705,25.617848963626,,,,
147994,"Rajakorven th P",859,64.8452682266785,25.5491360200867,,,,
148007,"Parras E",859,64.7992461696098,25.6207978285733,,,,
101236,"Ala-Siira P",859,64.7796532511775,25.7114496406699,,,,
97632,"Klaavu E",859,64.6433198677062,25.6346365434062,,,,
150153,"Pikkarala th P2",859,64.8447248817627,25.6512802583385,,,,
148002,"Nikula th P",859,64.8194292625328,25.6009753910551,,,,
147849,"Meijerinkylä th I",859,64.6530714972058,25.6172493389387,,,,
150084,"Patala P",859,64.8182188426515,25.6914480264605,,,,
148013,"Härmä E",859,64.7798289199785,25.6414057871678,,,,
101231,"Ylitalon th P",859,64.7721658090681,25.6736943127171,,,,
190065,"Männiköntie L",859,64.7314665430132,25.8408855549018,,,,
97657,"Vainio P",859,64.7295523846245,25.568534872578,,,,
150088,"Ojakylä P",859,64.8121909572015,25.709961824758,,,,
150020,"Laitinen E",859,64.7349628771076,25.8315116982386,,,,
148012,"Härmä P",859,64.7811743700052,25.6399006696174,,,,
101230,"Ylitalon th E",859,64.7712662413468,25.6725944823134,,,,
189660,"Kirkkomännikkö E",859,64.7633534238601,25.653648354349,,,,
148009,"Kasvi E",859,64.7932825855172,25.6249682543501,,,,
97649,"Korpela P",859,64.6942548696475,25.5843492707449,,,,
147851,"Kuoppala E",859,64.6347318238398,25.5750523998116,,,,
150086,"Marjakangas P",859,64.8140250980623,25.7029864442409,,,,
190242,"Kotikoski P",859,64.6377733156828,25.6405904018041,,,,
307167,"Tuulipurto E",859,64.8400146384327,25.6741751252316,,,,
147995,"Rajakorven th E",859,64.8446619458861,25.5511228822873,,,,
97647,"Nurkkaperä P",859,64.6856068903412,25.5977041876649,,,,
190071,"Marjakangas E",859,64.8134919793479,25.7046747761104,,,,
101240,"Suomela P",859,64.7759155829616,25.7475190557497,,,,
189279,"Tyrnävä",859,64.7647761584439,25.6508368984531,,,,
150092,"Matinolli P",859,64.7946396864748,25.6842371859339,,,,
97644,"Pekkalankangas E",859,64.6754859242818,25.6018216328035,,,,
164288,"Murto PP",859,64.8295080086299,25.6869918416237,,,,
150082,"Aaltomaa P",859,64.8255973970505,25.6881037133354,,,,
101248,"Rauhionoja E",859,64.7844650619309,25.8157064074553,,,,
150090,"Tulilanton th P",859,64.8064222298484,25.7071890996694,,,,
101238,"Uusi-Siira E",859,64.7772295620938,25.7250061467706,,,,
101229,"Tyrnävän kirkko E",859,64.7649481174629,25.6566601555922,,,,
150077,"Murto E",859,64.8399149505444,25.6644244920791,,,,
97641,"Korhosen th P",859,64.6652642598961,25.6067295051602,,,,
101242,"Markkula P",859,64.7730930899397,25.7546498804672,,,,
150074,"Pikkarala th P",859,64.8448845837308,25.6501224245329,,,,
150083,"Aaltomaa E",859,64.8251949449266,25.6883010286571,,,,
97650,"Leppineva E",859,64.6998220676951,25.5768299179665,,,,
97655,"Haurukylä P",859,64.7118134961756,25.5688728176699,,,,
101228,"Tyrnävän kirkko P",859,64.7647551202225,25.6560004447053,,,,
148004,"Ängeslevä th P",859,64.8163636826242,25.608184764275,,,,
97640,"Korhosen th E",859,64.6645638738975,25.6075520610276,,,,
97645,"Pekkalankangas P",859,64.6767971380367,25.6016903269636,,,,
190182,"Kunnankuja P",859,64.7631168352792,25.6495238223393,,,,
101145,"Koskenkyläntie P",859,64.6109593895364,25.714094643665,,,,
101245,"Korkalan th P",859,64.7750935246468,25.7693112911228,,,,
150094,"Korkala P",859,64.7874671197984,25.6939244350984,,,,
121323,"Simontaival P",859,64.8452065821479,25.6635175981364,,,,
150095,"Korkala E",859,64.7864886255566,25.6934715017179,,,,
148006,"Parras P",859,64.8003022698822,25.619777841058,,,,
97642,"Pörhönneva E",859,64.6700622234275,25.6025811787938,,,,
101239,"Uusi-Siira P",859,64.7771598175346,25.7265084962988,,,,
97643,"Pörhönneva P",859,64.6709762323009,25.6023178311299,,,,
150019,"Laitinen P",859,64.7360897196621,25.8324351620814,,,,
148019,"Tyrnävän yläaste E",859,64.7660164923932,25.6502357588743,,,,
147850,"Kuoppala P",859,64.6357010168232,25.5767967463161,,,,
307166,"Tuulipurto P",859,64.8400783563034,25.6740346717738,,,,
147999,"Ritokorpi E",859,64.8311265787605,25.5830342410765,,,,
97633,"Klaavu P",859,64.6438044156191,25.6340169583616,,,,
169657,"Pohjoisranta E",859,64.8340275333904,25.6849925472581,,,,
97637,"Meijerinkylä P",859,64.6547782496059,25.6190460653446,,,,
101684,"Laakso I",139,65.3173246356166,25.3763941988066,,,,
152600,"Koni th E",139,65.3323917529149,25.3761835742188,,,,
187719,"Hänninen P",139,65.3592236443158,25.3502253064215,,,,
152627,"Iin linja-autoasema",139,65.3243821689259,25.3788537886182,,,,
188003,"Yli-Olhavan koulu P",139,65.523760100348,25.5482622712496,,,,
187729,"Kuninkaanniemi P",139,65.3939392834412,25.325911270078,,,,
97776,"Huttula E",139,65.5703773930069,25.2176881602284,,,,
184241,"Iin Aseman koulu E",139,65.3199508449023,25.4480004551286,,,,
101703,"Tiri P",139,65.3251226198784,25.5082477186276,,,,
187718,"Hänninen E",139,65.3587452483469,25.3502681329644,,,,
97757,"Mustikka E",139,65.5132724915403,25.2851336187325,,,,
188534,"Ruohola th P",139,65.6139260993819,25.8758188596305,,,,
188521,"Rytikuja P",139,65.3170132937706,25.3643787302104,,,,
188538,"Puurunen P",139,65.6277522216987,25.9439730760129,,,,
152655,"Laakso P",139,65.3165048531761,25.3732726751185,,,,
152629,"Tanko th P",139,65.324519375427,25.3139113894967,,,,
97763,"Myllykangas Merihelmi E",139,65.527144967756,25.2590877918971,,,,
187784,"Tyykiluoto P",139,65.4074161912587,25.348280636724,,,,
188200,"Myllykangas Merihelmi P",139,65.5293641142597,25.2574913747785,,,,
188004,"Yli-Olhavan koulu E",139,65.5233704432353,25.5479984080766,,,,
188535,"Kylmälä E",139,65.6159661259223,25.8887919262418,,,,
97777,"Ojala E",139,65.5801037077498,25.2016742022193,,,,
97732,"Korpiniitty P",139,65.3672368243582,25.3742808607627,,,,
188537,"Puurunen E",139,65.6276742830577,25.9434719005169,,,,
97730,"Riikanaro P",139,65.3560017401122,25.3717245190202,,,,
188527,"Tuomela P",139,65.5688398039862,25.633857551053,,,,
188005,"Vanhalanperän th P",139,65.5172534660784,25.5439317159359,,,,
188526,"Tuomela E",139,65.5681251823902,25.6295267970833,,,,
230859,"Rytikuja P",139,65.3173996993214,25.3625269030313,,,,
231903,"Raasakkakangas L",139,65.3282774769439,25.5283465454731,,,,
97768,"Myllykangas P",139,65.541763786215,25.2442593545528,,,,
148505,"Kuivaniemi Kievari E",139,65.6021488916115,25.2037351129783,,,,
97751,"Pohjankari th E",139,65.4797885058264,25.3448274462521,,,,
152628,"Tanko th E",139,65.324498617481,25.3139430952314,,,,
187714,"Paasorannantie E",139,65.349493134311,25.3567062779518,,,,
148482,"Pohjois-Iin koulu E",139,65.341414979269,25.3746246072258,,,,
148492,"Rautasilta E",139,65.3227147120168,25.4411209223132,,,,
97727,"Virkkulan risteys E",139,65.3475677388659,25.3698057102,,,,
150378,"Iin virastotalo P",139,65.3227086510174,25.3671958216779,,,,
97772,"Halttulavanhatie P",139,65.5547528514498,25.238905802359,,,,
187713,"Päkkilänkangas P",139,65.3475601996942,25.3617185087904,,,,
97759,"Rantalantie E",139,65.5175919170521,25.2772993345623,,,,
101692,"Ii Asemankylä E",139,65.3198693516059,25.437145513446,,,,
101701,"Yliranta P",139,65.3249241495911,25.4970604690902,,,,
231434,"Vuornos P",139,65.4522908496514,25.3791110300621,,,,
97735,"Kemintie 816 E",139,65.3923973466872,25.3802176058686,,,,
101688,"Iin terveyskeskus P",139,65.3192851508295,25.4082719403726,,,,
97744,"Lahdenperä P",139,65.4380696522167,25.3760102322679,,,,
184624,"Virkkula E",139,65.3438836481693,25.3664695271438,,,,
184290,"Räinänperän th E",139,65.2737639602474,25.3646339019932,,,,
97720,"Iin Hamina E",139,65.3214787052473,25.3778863208407,,,,
184257,"Rajala E",139,65.3033299720622,25.548129466452,,,,
101695,"Myllytörmä P",139,65.3222160196408,25.4585852778925,,,,
97739,"Kantola th E",139,65.4181799534827,25.3863259555971,,,,
148485,"Tiiro P",139,65.3397794129122,25.3993017809266,,,,
101817,"Vanhalanperän th E",139,65.5165993302306,25.542972024512,,,,
231905,"Raasakkakangas I",139,65.3281553327433,25.5292158723966,,,,
148484,"Junnila P",139,65.3410257425818,25.3902614916352,,,,
187788,"Muhojoki E",139,65.4189267088078,25.3840585991346,,,,
187726,"Kantola P",139,65.3729066200612,25.322600299093,,,,
184251,"Paasonperä E",139,65.3112390156529,25.4810573349113,,,,
148509,"Havula P",139,65.6349682940206,25.4955882340735,,,,
97736,"Kemintie 816 P",139,65.3934595256843,25.3804575585516,,,,
184245,"Raasakka E",139,65.3155103812155,25.5138201477545,,,,
231435,"Kuivaniemi kirkonkylä P",139,65.5866487477417,25.1968048941819,,,,
187999,"Marion P",139,65.3264314045785,25.5195085607775,,,,
187730,"Laitinen E",139,65.4043489758249,25.3441917785274,,,,
188528,"Suomela P",139,65.5773417349957,25.6704844543993,,,,
97753,"Nyby E",139,65.4869035657012,25.3352351567355,,,,
97773,"Karisuo E",139,65.56241475706,25.2337065484291,,,,
187785,"Perso th P",139,65.4108390837638,25.3686452785477,,,,
148503,"Alaranta E",139,65.3296197207509,25.2978647138248,,,,
97750,"Oijärvi th P",139,65.4659064251373,25.3713132046935,,,,
184293,"Oijärvi th E",139,65.4649112901286,25.3725170672342,,,,
97760,"Rantalantie P",139,65.5184598700128,25.2750779115289,,,,
97737,"Keihäskangas E",139,65.4121153655846,25.3848483527149,,,,
101702,"Tiri E",139,65.325026161068,25.5063786821313,,,,
171262,"Sorosenperän th P",139,65.28826147184,25.3726793654847,,,,
101689,"Tapio P",139,65.3191557978974,25.4196662874304,,,,
97771,"Halttulavanhatie E",139,65.5532863506547,25.2395150322051,,,,
101494,"Pitäjänraja E",139,65.2584645890795,25.3568209797952,,,,
97716,"Shell Ii P",139,65.3094433426032,25.3742347435454,,,,
187995,"Timpurintie P",139,65.3162084061336,25.3884851477264,,,,
170194,"Iin keskusta E2",139,65.3226718694955,25.3775568919906,,,,
97784,"Kuivaniemi P",139,65.6083335139388,25.1787908482293,,,,
97722,"Koni th P",139,65.333815818285,25.374461703227,,,,
148498,"Vaihtometsäntie E",139,65.3174015499798,25.3335630235862,,,,
97734,"Tontinharju P",139,65.3734678192626,25.3757722908888,,,,
101691,"Ii Asemankylä P",139,65.3198726774218,25.4362873629791,,,,
148487,"Raasakan voimalaitos P",139,65.3390136876638,25.4070683196234,,,,
148496,"Räinä P",139,65.3153341314251,25.3422196282983,,,,
97766,"Herrala P",139,65.5338437879255,25.2502116380211,,,,
97714,"Liedes P",139,65.3021882134124,25.3748941631232,,,,
148510,"Havula E",139,65.6353835588198,25.4963418506191,,,,
152634,"Iin keskusta E",139,65.3227157184108,25.3775789179811,,,,
101821,"Hanhisuvanto E",139,65.4832256969708,25.4456999470043,,,,
101697,"Pakanen E",139,65.3235952002842,25.4719728859707,,,,
150377,"Iin virastotalo E",139,65.3228172483409,25.3691409026413,,,,
188012,"Ylikäytävä P",139,65.4680110771184,25.3811231421805,,,,
97745,"Vuorma E",139,65.450773456162,25.3781413728124,,,,
101706,"Pikkulaurila P",139,65.3123314902968,25.5626034319929,,,,
231901,"Asemankylä I",139,65.3198570259447,25.4382206854392,,,,
97752,"Pohjankari th P",139,65.4807291750175,25.34375381403,,,,
187727,"Kantola E",139,65.372908140035,25.3213139328282,,,,
101819,"Konttila th E",139,65.4894679299017,25.4749291506756,,,,
97778,"Ojala P",139,65.581141306258,25.2005594521793,,,,
101687,"Iin terveyskeskus E",139,65.318896808709,25.4043572273034,,,,
500678,"Autokeidas  Ii",139,65.2897778106286,25.3763367487555,,,,
97775,"Huttula P",139,65.5713250674976,25.2160123285519,,,,
187992,"Oijärvi Sampola",139,65.6372295475609,25.9733652941866,,,,
188008,"Vuosioja th P",139,65.499377000583,25.4912249265084,,,,
187786,"Perso th E",139,65.4114499208531,25.3688289502929,,,,
97709,"Praavan th E",139,65.2813387395727,25.3685060134668,,,,
97770,"Lahtela P",139,65.549013568803,25.2412612002601,,,,
97781,"Kuivaniemi aseman th E",139,65.5979853521323,25.1946849149031,,,,
152657,"Ellala E",139,65.3188710760796,25.3587750447404,,,,
148494,"Jakkila P",139,65.3162106883027,25.3505363571313,,,,
97756,"Tolppalammi P",139,65.5012053602232,25.3001975986745,,,,
148481,"Pohjois-Iin koulu P",139,65.3420183072657,25.3724334881135,,,,
187782,"Laitinen P",139,65.4044426440197,25.3443373650284,,,,
97733,"Tontinharju E",139,65.3722211749421,25.3754562880601,,,,
150383,"Iin työväentalo E",139,65.3214158271344,25.3808729143044,,,,
97706,"Hätälä P",139,65.2697196456727,25.362792423246,,,,
148495,"Jakkila E",139,65.3162000997944,25.3504101222495,,,,
188011,"Lalli P",139,65.469686772354,25.3923787112003,,,,
97723,"Sarkkinen E",139,65.3387844113381,25.3677301573986,,,,
97767,"Myllykangas E",139,65.5405019072148,25.2447812385029,,,,
171263,"Sorosenperän th E",139,65.2883545059466,25.3725276979976,,,,
188523,"Vaaraoja th P",139,65.5326643016404,25.5669432796477,,,,
97754,"Nyby P",139,65.4876998735514,25.3335633092706,,,,
148501,"Rantakestilä P",139,65.3209719895273,25.3222916147874,,,,
187723,"Klaar P",139,65.3658765137116,25.3495925669871,,,,
101694,"Paakkola P",139,65.3232083504009,25.4480043470378,,,,
187724,"Pikkukantola E",139,65.3690426769087,25.3420200104728,,,,
184244,"Raasakka P",139,65.3157139549824,25.5117343794434,,,,
301004,"Harjula",139,65.6825189151611,25.7733888195732,,,,
101820,"Hanhisuvanto P",139,65.4835359507913,25.4466633159779,,,,
97762,"Merihelmi eteläinen th P",139,65.5222727658357,25.2644307567222,,,,
148490,"Partanen E",139,65.3297113356996,25.4237269391673,,,,
187787,"Muhojoki P",139,65.4186242086929,25.3829611850722,,,,
101493,"Pitäjänraja P",139,65.2595775108763,25.3573915012963,,,,
97728,"Virkkulan risteys P",139,65.3489412757947,25.3701174782111,,,,
152626,"Iin keskusta P",139,65.3229158218488,25.3776794339826,,,,
188530,"Tammilehto E",139,65.5873987362031,25.7250107123254,,,,
191117,"Timpurintie E",139,65.3161844513178,25.3890383099198,,,,
101699,"Ylirannan koulu E",139,65.3245486114793,25.4816341180205,,,,
187728,"Kuninkaanniemi E",139,65.3934040535984,25.3255501699607,,,,
101704,"Pajarinperä P",139,65.3221502119275,25.5451329085101,,,,
184240,"Iin Aseman koulu P",139,65.3199781724193,25.4477513212307,,,,
188532,"Hiilikumpu E",139,65.6069261473244,25.8315386684175,,,,
231902,"Raasakka L",139,65.3283075790072,25.5280350873807,,,,
97708,"Räinänperän th P",139,65.2749909077235,25.3652570577928,,,,
97718,"Laakso P",139,65.3168013759324,25.3733756275562,,,,
97724,"Sarkkinen P",139,65.3399452149042,25.3679244012491,,,,
148508,"Jokikylä (Kuivaniemi) E",139,65.6333228954504,25.4904961121043,,,,
148489,"Partanen P",139,65.3301134393675,25.422685486269,,,,
101822,"Ylikäytävä E",139,65.4677881609321,25.3803234852297,,,,
97729,"Riikanaro E",139,65.354697470349,25.3714202449195,,,,
148486,"Tiiro E",139,65.3393364602328,25.4021209601002,,,,
97725,"Virkkulan risteys E",139,65.3427122632027,25.368620261722,,,,
101693,"Paakkola E",139,65.3231296304115,25.4450141011201,,,,
184623,"Virkkula P",139,65.3437752269407,25.3669675404443,,,,
97741,"Seljänperä E",139,65.426612656134,25.3847319498703,,,,
97715,"Shell Ii E",139,65.3081708939317,25.3742766745676,,,,
187716,"Jussila E",139,65.3561161347359,25.3495581346041,,,,
184249,"Patosillan th E",139,65.3132556364414,25.5325811689758,,,,
97710,"Praavan th P",139,65.2826433715226,25.3691791610373,,,,
148511,"Hyry E",139,65.6412956491657,25.5070866991968,,,,
188524,"Uutela th E",139,65.5577457768413,25.6146388706762,,,,
188000,"Marion E",139,65.3264787584366,25.5196364616639,,,,
184291,"Olhava E",139,65.462092917294,25.3758153980662,,,,
150376,"Haminan koulu E",139,65.3227747051516,25.3738397465953,,,,
148507,"Jokikylä (Kuivaniemi) P",139,65.6332740153173,25.4902212668246,,,,
184292,"Olhava P",139,65.4632261200374,25.3745193605361,,,,
187998,"Ylirannan koulu P",139,65.3243649821015,25.4834534990823,,,,
188010,"Lalli E",139,65.469729769166,25.3927349423619,,,,
188522,"Rytikuja E",139,65.3168053107074,25.3620638275406,,,,
97765,"Herrala E",139,65.5329193318628,25.2519352015306,,,,
97726,"Virkkulan risteys P",139,65.3441744790221,25.3689887389294,,,,
97713,"Liedes E",139,65.3010102122065,25.3746687604622,,,,
97769,"Lahtela E",139,65.5478915915265,25.2417281021031,,,,
101698,"Pakanen P",139,65.3238704152581,25.4738907860004,,,,
150375,"Haminan koulu P",139,65.3227183487458,25.3752171395487,,,,
97779,"Kuivaniemi kk th E",139,65.5852037818683,25.197460602296,,,,
188536,"Kylmälä P",139,65.616085073772,25.8895103036154,,,,
148499,"Vaihtometsäntie P",139,65.318340158505,25.3312938373799,,,,
148491,"Rautasilta P",139,65.3232309134622,25.4393636021734,,,,
188007,"Mustonen E",139,65.5130144966154,25.5319450329276,,,,
101700,"Yliranta E",139,65.3246206536146,25.4945736619678,,,,
152658,"Siikatie E",139,65.3177165545403,25.3551805274188,,,,
187997,"Myllytörmä E",139,65.3224129466587,25.4566609010462,,,,
97731,"Korpiniitty E",139,65.3657012477029,25.3739462461627,,,,
150380,"Valtarin koulu P",139,65.3208330428558,25.362836037769,,,,
187721,"Leisto E",139,65.363172548955,25.3474474864492,,,,
187712,"Päkkilänkangas E",139,65.3474199378985,25.3619161312522,,,,
187717,"Jussila P",139,65.3563102691586,25.3497850917466,,,,
101690,"Tapio E",139,65.3191946184556,25.4216174836356,,,,
148506,"Kuivaniemi Kievari P",139,65.6026315159345,25.2045231681566,,,,
188525,"Uutela th P",139,65.5584861938429,25.616303116904,,,,
150379,"Valtarin koulu E",139,65.3209187389494,25.3629920578821,,,,
188529,"Suomela E",139,65.577509840811,25.6708797733669,,,,
184250,"Paasonperä P",139,65.3113035703744,25.4812375151659,,,,
188531,"Tammilehto P",139,65.5874788267004,25.725539864223,,,,
148502,"Alarannan koulu E",139,65.3223037604682,25.3180681334076,,,,
148488,"Raasakan voimalaitos E",139,65.338199632968,25.4086757621392,,,,
187720,"Leisto P",139,65.3625736212735,25.3471077596056,,,,
188009,"Konttila th P",139,65.4896778436318,25.4756035677078,,,,
150384,"Iin työväentalo P",139,65.3219151176234,25.3800297329293,,,,
184246,"Mökkiperä P",139,65.3133845401248,25.4616556312874,,,,
301117,"Kuivaniemi MH",139,65.6052406626502,25.2129061781489,,,,
97705,"Hätälä E",139,65.2685036119021,25.3626289982178,,,,
97717,"Laakso E",139,65.3167032650764,25.373346719254,,,,
148504,"Kuivaniemi as I",139,65.5994250173236,25.1965987304403,,,,
97755,"Tolppalammi E",139,65.5003380673525,25.3018867938255,,,,
101818,"Vuosioja th E",139,65.4984708094251,25.4887216603518,,,,
187725,"Pikkukantola P",139,65.3690987617066,25.3416677241271,,,,
97774,"Karisuo P",139,65.5632210623198,25.2321956846579,,,,
188533,"Hiilikumpu P",139,65.6069979702008,25.8319839185769,,,,
97738,"Keihäskangas P",139,65.41349062453,25.3851758596185,,,,
187783,"Tyykiluoto E",139,65.4072716753116,25.3481259839215,,,,
188006,"Mustonen P",139,65.5132663638044,25.5329738908801,,,,
148514,"Oijärvi P",139,65.6361685254712,25.9724735628118,,,,
148500,"Rantakestilä E",139,65.3206180568781,25.3236735760243,,,,
148513,"Oijärvi E",139,65.6358925920609,25.9716941277815,,,,
306974,"Ruohola th E",139,65.6138903512855,25.8755948388786,,,,
97783,"Kuivaniemi E",139,65.6074728628765,25.1805878004003,,,,
184247,"Mökkiperä E",139,65.313307865651,25.4619326743441,,,,
148483,"Junnila E",139,65.3405971451122,25.3875067879322,,,,
231432,"Kantola th P",139,65.4198594459584,25.3866329254244,,,,
97719,"Iin Hamina P",139,65.321551836483,25.3779779358768,,,,
184248,"Patosillan th P",139,65.3135584279354,25.5319455030798,,,,
231433,"Seljänperä P",139,65.4282274346226,25.3835157049982,,,,
97758,"Mustikka P",139,65.5143225954982,25.2835753003857,,,,
97780,"Kuivaniemi kk th P",139,65.5863310865518,25.1969276058944,,,,
97782,"Kuivaniemi aseman th P",139,65.5993268184065,25.194304614177,,,,
97761,"Merihelmi eteläinen th E",139,65.5214523803652,25.2665894517505,,,,
187722,"Klaar E",139,65.365685956477,25.3497199228883,,,,
101816,"Vaaraoja th E",139,65.5319568465539,25.565222473224,,,,
101705,"Pajarinperä E",139,65.3215438226261,25.5457139975335,,,,
150381,"Ellala P",139,65.3193961169211,25.3599643622367,,,,
148512,"Hyry P",139,65.642086654614,25.5085316459658,,,,
231904,"Raasakka I",139,65.3281817499809,25.5290573360505,,,,
97743,"Lahdenperä E",139,65.4370169398242,25.3768075132256,,,,
148497,"Räinä E",139,65.3152728396532,25.3407672357698,,,,
187715,"Paasorannantie P",139,65.3495476778177,25.356434219581,,,,
120398,"Kukkulatie P",564,65.089171218804,25.6931920862126,,,,
150337,"Tallitie E",564,65.1802107342947,25.3804455185804,,,,
101329,"Pitkälahti E",564,64.9574992674248,26.2835213491504,,,,
148432,"Isojämsä P",564,65.1849169247268,25.4806690346416,,,,
150369,"Allikontie P",564,65.1928526481406,25.4319952110117,,,,
120414,"Laivakangas P2",564,65.0862360600187,25.6848283587143,,,,
120713,"Merikoskenkatu E2",564,65.0247106512379,25.4691658946212,,,,
101508,"Keiska E",564,65.1922515191786,25.3648465813782,,,,
120424,"Kaijantie P",564,65.0886022229551,25.4106089691948,,,,
120404,"Havutie E",564,65.0872998805439,25.7105850543574,,,,
101602,"Ristikangas E",564,65.1751828244714,25.4837504998307,,,,
101650,"Kiimingin lukio E",564,65.1293749944563,25.7721646014297,,,,
120656,"Alppila P",564,65.0350066052882,25.4649506417469,,,,
101617,"Mannintie P",564,65.1706804258919,25.5945220353693,,,,
101271,"Ahmasjärventie P",564,65.0397916714357,25.8996640485953,,,,
120628,"Leväsuontie P",564,65.0396529308079,25.5782590624901,,,,
120877,"Kultatie E",564,64.9976481195692,25.5123061482804,,,,
307174,"Laivakankaan koulu E",564,65.0833941492854,25.706391848728,,,,
121011,"Kaskiahontie P",564,64.9717308295879,25.5859954888684,,,,
101526,"Hekkalansaarentie E",564,65.1405079862683,25.3543173781408,,,,
101537,"Holstinmutka P",564,65.1092029660179,25.3882672159649,,,,
120084,"Heinonpolku P",564,65.2222774775133,25.3009557087876,,,,
120605,"Nietospolku E",564,65.0423874251433,25.5955132248165,,,,
101073,"Väliranta P",564,64.9680657456572,25.3568714005209,,,,
120085,"Laitakarintie E",564,65.2160127795818,25.2995401998065,,,,
98721,"Vanhantien th P",564,64.9346954909856,25.7142620695503,,,,
169646,"Emopolku P",564,64.9546287327477,25.5293724760177,,,,
184156,"Kurkelantie P",564,65.018969411231,25.5115940668047,,,,
190293,"Jylkynkankaan th P",564,65.0761340673168,25.5329884501537,,,,
189737,"Loukko P",564,65.1196802399309,26.1594314523078,,,,
121108,"Siipikuja P",564,64.9585423962605,25.5302932635851,,,,
171808,"Äimärautio P",564,64.9853884816969,25.4758532028153,,,,
150393,"Päkkilä P",564,65.2960691900452,25.6328526402904,,,,
121534,"Kalliola P",564,65.0252795920881,25.4866764944077,,,,
101317,"Murtomaa P",564,65.0207593353042,26.1176621926488,,,,
120626,"Menninkäisentie E",564,65.043205564805,25.4793793909521,,,,
308744,"Naavakuusi E",564,64.9781280920686,25.5757807621791,,,,
101515,"Revontie P",564,65.1723481171417,25.3501995651464,,,,
150244,"Sanginniementie E",564,64.9616955315441,25.6785991929116,,,,
120880,"Karjasillan th E",564,64.9985874669063,25.4918702762807,,,,
188499,"Porotie E",564,65.0340978412785,25.5410767092145,,,,
120549,"Teknologiakylä P",564,65.0587349108724,25.4587235107666,,,,
186023,"Pomolantie E",564,65.2193307813068,25.3007233919344,,,,
148103,"Korhosenkuja E",564,64.9693579045306,25.6550608967922,,,,
305712,"Isoahonkangas E",564,65.1238033795784,25.7583894390641,,,,
181289,"Kisakankaan th E",564,64.9369737270634,25.3770515867771,,,,
120890,"Svaaninkuja P",564,64.9964693134017,25.534586690726,,,,
150389,"Hekkala E",564,65.3014467623732,25.6227421797386,,,,
120214,"Hukantie E",564,65.1735863906644,25.3490956688292,,,,
187702,"Herralankuja P",564,65.1770446923533,25.3487012678271,,,,
101796,"Pyhtilä L",564,65.5026119502242,26.1132179631925,,,,
183970,"Lähimetsäntie P",564,64.9485668633018,25.5652547269343,,,,
101709,"Piste P",564,65.3117469982245,25.5770625203791,,,,
101503,"Taatanperän th P",564,65.216482613149,25.3697600992878,,,,
120454,"Kuuselantie P",564,65.0774486283642,25.3975944483879,,,,
150258,"Oinaantie E",564,65.0695912636077,25.5233768237236,,,,
118977,"Saaristonkatu 2 P",564,65.0096425399285,25.4742789674161,,,,
98736,"Hangas th E",564,64.9002128478101,25.7988048253803,,,,
171807,"Joulumerkinpolku P",564,64.9811415040006,25.4834973256048,,,,
120932,"Jalohaukka P",564,64.9880712111078,25.5157173545799,,,,
120723,"Nokkalantie E",564,65.0235965805676,25.5052640778385,,,,
121166,"Pitkäkankaantie P",564,64.9419347542189,25.3954081852631,,,,
500991,"Oulu linja-autoasema  lähtölaituri",564,65.009515588136,25.4831443905374,,,,
120213,"Hukantie P",564,65.1736222714637,25.3490939940392,,,,
56566,"Oys a5",564,65.006154064746,25.5211219148745,,,,
120505,"Koisotie P",564,65.0658909266537,25.4271115957437,,,,
307214,"Kiulukangas E",564,65.0283446833395,25.5737582663195,,,,
120597,"Mustansuontie P",564,65.0480378331361,25.4402872897569,,,,
120529,"Elektroniikkatie 7E",564,65.0638332412669,25.4379901784758,,,,
300837,"Santaholma E",564,65.1847939696911,25.3213239265414,,,,
101293,"Ukonkangas P",564,65.030108535589,26.1132647226092,,,,
120401,"Vaunumiehenkuja P",564,65.0914274871633,25.4221909286039,,,,
148291,"Kirveslä P",564,65.0802313129445,26.3133034252506,,,,
101286,"Vesala P",564,65.0344181094218,26.0344270179236,,,,
148436,"Onkamo th P",564,65.1893419177659,25.4644619096478,,,,
101517,"Viikki P",564,65.1673210029094,25.3477654920341,,,,
184144,"Kiviharjuntie E",564,65.0092687941006,25.5085569748286,,,,
148278,"Keskimmäinen P",564,65.1557386211636,26.0766468501108,,,,
189674,"Lapinkankaan koulu E",564,64.925101917317,25.8007280602394,,,,
171805,"Karhunkedontie P",564,64.9786493583993,25.4858015654184,,,,
301310,"Kääriä E",564,65.0621255493748,26.1903239179056,,,,
121007,"Hanhikaarentie P",564,64.9711051410183,25.5995845152206,,,,
120793,"Kastellinhäkki P",564,65.0093642758204,25.5258976166886,,,,
150228,"Vasankangas E",564,64.924105587076,25.7601352444615,,,,
120915,"Tavitie E",564,64.9929215537599,25.4902592980811,,,,
184454,"Luukela P",564,65.233995131292,25.3605733386164,,,,
101645,"Kirkonniementie P",564,65.1330097540517,25.7591048508444,,,,
120837,"Kyösti Kallion puisto E",564,65.0056713240573,25.4584191247269,,,,
307323,"Nokelankangas P",564,64.9821015983273,25.507569754529,,,,
120883,"Karjasillan kirkko P",564,64.9977930485157,25.4899550821725,,,,
189656,"Kemintie E",564,65.0354727824178,25.4677804318158,,,,
120544,"Yliopisto P",564,65.058957392709,25.4698819479155,,,,
152734,"Kiimingin yläaste E",564,65.1261923534209,25.7849455429812,,,,
120660,"Sirppitie E",564,65.0331354555461,25.4812827356249,,,,
189675,"Välitalonkuja P",564,64.9229514311941,25.8057280575656,,,,
101269,"Lamu P",564,65.0405109846069,25.8887247182126,,,,
152849,"Metsälä E",564,64.9868677190149,25.9326809583899,,,,
101265,"Saarinen P",564,65.0432444910023,25.7994708416588,,,,
120852,"Radiomastontie P",564,65.0016166408071,25.5302910640987,,,,
184260,"Aalto P",564,65.3018492190521,25.6995728991149,,,,
120997,"Haarankankaantie E",564,64.9730603360394,25.5817977244304,,,,
120850,"Lämsänjärventie P",564,65.0008925191935,25.5527902590408,,,,
148434,"Harjunkangas P",564,65.1872724478735,25.4719121996548,,,,
152877,"Lusikka E",564,64.9678023938575,25.9860071036017,,,,
190164,"Oulunlahdentie  Kaakkuri P",564,64.96113126037,25.5400675935214,,,,
120434,"Honkapirtti P",564,65.0844051713178,25.4015575133154,,,,
120309,"Sammalkuja E",564,65.1279380116075,25.7617206694427,,,,
101715,"Jakkukylä P",564,65.3100233770415,25.6182508025601,,,,
150265,"Nurmioja P",564,65.1321217161608,25.6204636023992,,,,
120379,"Holopaisenkuja E",564,65.097023288979,25.4192287807694,,,,
184141,"Medipolis",564,65.0068747759986,25.5146094953616,,,,
120886,"Knuutilanranta P",564,64.9959016871445,25.5586031093469,,,,
189672,"Tervaojantie E",564,64.9297865022087,25.7898425753875,,,,
120681,"Manttaalitie E",564,65.0283937609508,25.5496398452645,,,,
120999,"Sutela P",564,64.9742575983225,25.5018653759656,,,,
120834,"Hakakatu E",564,65.004745460159,25.4897210900129,,,,
120689,"Karttatie P",564,65.0261388645387,25.5467752825023,,,,
240372,"Kaartintie P",564,65.0527427355221,25.6018907368945,,,,
190183,"Aumaharju E",564,65.0292605971641,26.0138065092347,,,,
101621,"Hurunmäki P",564,65.1548864496083,25.6169644196872,,,,
190197,"Karpinlampi P",564,65.1778492158835,25.5444292910549,,,,
171802,"Kaakkurin th E",564,64.9738952777609,25.4886724534344,,,,
150326,"Pappilanlahti P",564,65.1879876601395,25.29887148242,,,,
120895,"Limingantulli E",564,64.995871744045,25.4644412945138,,,,
189518,"Hintantie P",564,65.026512116199,25.4995981216766,,,,
120533,"Varvikkokuja E",564,65.0600600291041,25.6240163462839,,,,
150312,"Takalonkylä I",564,65.1576786607308,25.6763668354198,,,,
148268,"Lakso th P",564,65.1006135873618,26.1575552630752,,,,
187704,"Santaholman th E",564,65.179943537821,25.3260787879049,,,,
120598,"Vilkkutie P",564,65.0490144859062,25.43613134696,,,,
148297,"Kallio L",564,65.0961202916885,26.39461343473,,,,
121094,"Kaakkurinojantie E",564,64.9603220999971,25.5412922695013,,,,
150395,"Kumpu P",564,65.2936781587298,25.6405270597498,,,,
101724,"Suoranpää E",564,65.3338428333121,25.6819567698223,,,,
101668,"Ponnonmäki E",564,65.1349877137557,25.7934161853703,,,,
101274,"Jumila P",564,65.0322609040472,25.9591930483517,,,,
310720,"Vaskikangas P",564,65.0057768545515,25.6029832963232,,,,
120891,"Merikotka E",564,64.995349963782,25.5153347373867,,,,
230854,"Mäntykivi P",564,64.9411079156235,25.5300088002933,,,,
121047,"Vallinkorva P",564,64.9645993738203,25.6676656764022,,,,
231894,"Kääriä E",564,65.0600971934254,26.190373008187,,,,
150223,"Väinölä E",564,64.9321937886224,25.7470314324203,,,,
148140,"Vaalantie E",564,64.9311422852514,25.7866966209053,,,,
185772,"Paulaharjuntie E",564,65.0311230926755,25.472385153044,,,,
101732,"H Ylitalo P",564,65.3421973604798,25.7137904689876,,,,
164186,"Mesaanitie E",564,65.0314041671431,25.4323023867367,,,,
120606,"Tuiskutie P",564,65.044389369301,25.5883050662026,,,,
184172,"Valkealinna P",564,65.0127954030779,25.4748220738518,,,,
101655,"Paso P",564,65.1203916684454,25.8021572554584,,,,
148302,"Nuoritta 2 I",564,65.0926935181094,26.4761032130271,,,,
187973,"Kaartintie E2",564,65.0532440468872,25.5974206514997,,,,
150269,"Hautakangas P",564,65.1405245057672,25.6298467651902,,,,
189252,"Alasintie E",564,64.9988067957122,25.4672506897905,,,,
98705,"Juurus th E",564,64.9732272939014,25.6004818167579,,,,
120946,"Maikkulantie P",564,64.9847740620909,25.5651945118303,,,,
150299,"Ylämäki P",564,65.1426183313539,25.3794188340932,,,,
120899,"Knuutilankangas E",564,64.9930933630258,25.5615146530808,,,,
190186,"Ukkolanmäki E",564,65.0328931016737,26.0897668330566,,,,
101085,"Ristihäkki P",564,64.9787433774976,25.2773774910064,,,,
148138,"Vaalantie P",564,64.9314923786704,25.7858827776069,,,,
101347,"Vähä-Vuotto th I",564,64.95029529712,26.5262600891633,,,,
309968,"Kaislaranta E",564,64.9531987314623,25.39313467397,,,,
120957,"Patamäen koulu P",564,64.9833351842775,25.5826160096736,,,,
120208,"Kauppakuja P",564,65.175422702663,25.3504713244411,,,,
121535,"Kalliola E",564,65.0252799995744,25.4870692871028,,,,
98539,"Katajakorpi E",564,65.1937625276885,26.2293909679745,,,,
148294,"Perttula E",564,65.0930209078319,26.3430016101525,,,,
120621,"Rannanperä P",564,65.042506168968,25.5817744427941,,,,
191217,"Nuoritta 2 L",564,65.0927216841373,26.4743190008817,,,,
187974,"Huonesuo th P",564,65.0374334456853,25.5525879481511,,,,
150348,"Kurkelansaari E",564,65.1846562430515,25.4423492364991,,,,
120933,"Vaskitie P",564,64.9893964181031,25.5073563095869,,,,
310712,"Lämsenjärvi E",564,64.9952343097809,25.5499904468918,,,,
150285,"Satalahti P",564,65.1423178754598,25.3400850251504,,,,
189255,"Limingantie E",564,64.9983713480907,25.464035189308,,,,
307292,"Maikkula th L",564,64.9818176992004,25.5572053608416,,,,
101610,"Taipaleenkylä",564,65.1756364344913,25.5541110329227,,,,
120728,"Haapalehdontie E",564,65.0207009580721,25.5547845933321,,,,
150158,"Pitkäkankaantie P2",564,64.9424145365726,25.3972074935034,,,,
148090,"Saarela P",564,65.0023432199482,25.5846243479483,,,,
190190,"Vapo P",564,65.0165216088976,26.1133137220928,,,,
98702,"Maikkulantien th E",564,64.9802937089649,25.5628227544457,,,,
98712,"Sääskensuon th E",564,64.9564418596339,25.6532552252464,,,,
188505,"Korvensuora E",564,65.0440048263858,25.5727544375712,,,,
300825,"Käpylä",564,64.9879136322648,25.2582147286339,,,,
120530,"Elektroniikkatie 8P",564,65.0636536195744,25.4379895295533,,,,
121113,"Metelinkangas PP",564,64.9561446476126,25.5502725191661,,,,
101345,"Alavuoton th I",564,64.9613622639413,26.4829613768997,,,,
120950,"Kurrenkuja P",564,64.9845313666148,25.5151074586594,,,,
120904,"Sorsatie E",564,64.9934851239014,25.4955143495149,,,,
120757,"Kuparilammintie E",564,65.0171466090641,25.5434025802788,,,,
101521,"Hookana P",564,65.1556181465824,25.3504771781462,,,,
120624,"Järvikioski E",564,65.0434855215389,25.4910734107001,,,,
120743,"Koivumaantie E",564,65.0181910804202,25.5477042094615,,,,
101547,"Keskuskatu E",564,65.0784157580634,25.4086401834706,,,,
101653,"Korkeamaantie P",564,65.1237924782702,25.7927710340448,,,,
120493,"Kuovitie E",564,65.0668516966283,25.5163158669943,,,,
101714,"Jakkukylä E",564,65.309667461712,25.6149589915677,,,,
148124,"Paaso P",564,64.9467701377389,25.7366709082441,,,,
101614,"Kuivala E",564,65.1749213044074,25.576447216118,,,,
120718,"Kaplastie E",564,65.0222205405873,25.5590804434323,,,,
120302,"Sammalkuja P",564,65.1286633471863,25.7625588303686,,,,
120799,"Rotuaari",564,65.0109028137548,25.4695010754548,,,,
183971,"Lähimetsäntie E",564,64.9487520504582,25.5656967221201,,,,
98538,"Pikku-Martimo P",564,65.1896794992602,26.1942803774799,,,,
120776,"Kuvernööri",564,65.0150333946477,25.475927273244,,,,
101616,"Kiimingin kunnanraja E",564,65.17331182418,25.587976167219,,,,
186032,"Urpiaisentie P2",564,65.0706680301406,25.5198661505766,,,,
121064,"Punatulkunrinne P",564,64.9630092239935,25.5608274120153,,,,
181287,"Kuovintie P",564,64.9422433370825,25.3729457938192,,,,
98518,"Vesantien th E",564,65.1455803851601,25.8947925221565,,,,
98488,"Vesalanmäki E",564,65.0577974458683,25.6169600010037,,,,
101275,"Hautasuo th P",564,65.0311386375089,25.9690777874441,,,,
148091,"Saarela E",564,65.0030121832724,25.583484700302,,,,
148270,"Loukko th P",564,65.1218850851975,26.1615180506121,,,,
300677,"Heikkilänkangas P",564,64.9689447885368,25.6088496818832,,,,
120293,"Ukkola E",564,65.1293076010281,25.7846183462148,,,,
101634,"Tirinkylä E",564,65.1364236650552,25.689864085333,,,,
120080,"Kalastajantie PP",564,65.2246790419502,25.310161267485,,,,
98508,"Viitantie E",564,65.1165763855798,25.7389926427969,,,,
148104,"Metsäkouluntie P",564,64.9684341135048,25.6651042091316,,,,
101810,"Nivalantie L",564,65.4895658094369,26.0211822081669,,,,
120383,"Blomintie P",564,65.0924067347875,25.7059895074188,,,,
120630,"Järvenkorventie E",564,65.0411439521671,25.4992976261439,,,,
120881,"Karjasillan th P",564,64.9985874669063,25.4918702762807,,,,
307155,"Kaupungintalo",564,65.0142721669481,25.471164800819,,,,
310597,"Tukkitie E",564,65.0319080409667,25.4488410034956,,,,
101263,"Saviharju E",564,65.0389467914901,25.7155822083813,,,,
120435,"Valkamantie P",564,65.0823833496146,25.3997152323921,,,,
184161,"Intiöntie E",564,65.0168989256832,25.498517416404,,,,
152751,"Puuperäntie P",564,65.0515872995199,25.6274333172874,,,,
120455,"Kuuselantie E",564,65.0771194129988,25.3980725114089,,,,
120520,"Kaijonlahdentie E",564,65.0616105987785,25.4961210805386,,,,
150325,"Pontolanpolku",564,65.1838979083428,25.2998398437088,,,,
307152,"Harjapäänkatu E",564,65.0036393060995,25.4700248815602,,,,
152856,"Pöytäkangas P",564,64.9851436712021,25.9216845214617,,,,
120631,"Niittyarontie E",564,65.0415061603247,25.4523211042424,,,,
307362,"Sorvo E",564,64.9874582927984,25.8918512678832,,,,
120939,"Kolehmaisentie E",564,64.9853923915566,25.5769685152263,,,,
148266,"Niemi th P",564,65.0876373021471,26.161534738383,,,,
101736,"Kaisto P (PP)",564,65.3464339006155,25.7464419391856,,,,
152733,"Kiimingin yläaste P",564,65.1262365749652,25.7848791573696,,,,
101516,"Revontie E",564,65.1721062583802,25.3500723570659,,,,
101319,"Hillikkotie P",564,65.0250120943543,26.1220087713678,,,,
148251,"Laukkala P",564,65.0042062590284,25.7432618132052,,,,
120375,"Seelannintie P",564,65.0989695531181,25.4193715511853,,,,
120593,"Solmutie E",564,65.0485425927067,25.452113832468,,,,
120826,"Heinätorin puisto P",564,65.007805469984,25.4616017329721,,,,
98533,"Arkala L",564,65.1833959279128,26.1411251676471,,,,
14040,"Runttilantie P",564,65.0863325285267,25.8358542773442,,,,
150165,"Maksakuja E",564,64.9537164420317,25.3858283500219,,,,
101501,"Ukkolanperän th P",564,65.2301681425331,25.362028674371,,,,
171811,"Keskipiiri E",564,64.9733317677309,25.3285958220177,,,,
101281,"Paakki E",564,65.0270216892773,26.006813665005,,,,
230856,"Huhtakalliontie E",564,64.9478242619484,25.5253300166575,,,,
190163,"Haaransuontie E",564,64.9775370343072,25.5587904503465,,,,
307193,"Klippatie E",564,65.0842926815348,25.4466942833023,,,,
101600,"Tenttutie E",564,65.173555253484,25.4789097444417,,,,
120756,"Kuparilammintie P",564,65.0170949811591,25.5435145644299,,,,
121054,"Tiaisrinne P",564,64.9643109660303,25.5552915952114,,,,
101711,"Partanen P",564,65.3097693600379,25.5951818849563,,,,
150275,"Kellon aseman th E",564,65.1163994952608,25.383264267625,,,,
101339,"Järvenpää I (Oulu)",564,64.951264668161,26.3369358515825,,,,
120729,"Metsotie P",564,65.021564995094,25.5347589640698,,,,
120527,"Yliopiston puutarha P",564,65.062797551587,25.4669335323298,,,,
169614,"Oulu  linja-autoasema L5",564,65.0090790612136,25.4844252897992,,,,
148112,"Peräkylä th E",564,64.9624342370985,25.6925986703275,,,,
120446,"Itälahdentie P",564,65.0802139271944,25.3974093825155,,,,
150334,"Riihitie E",564,65.1775435796202,25.374610849718,,,,
98718,"Turkansaari th E",564,64.944400179622,25.6868438604807,,,,
120714,"Merikoskenkatu E1",564,65.024815687507,25.4696468280859,,,,
101553,"Meritaskila P",564,65.0617212008174,25.4195800256798,,,,
98729,"Pikkarala vt 22 P",564,64.9138774167936,25.7632250408651,,,,
121012,"Lumijärventie E",564,64.973217319977,25.5097597204331,,,,
184256,"Rajala P",564,65.303423680527,25.5491069370804,,,,
148253,"Kontiokoski E",564,65.0026527779658,25.7611333421757,,,,
120920,"Viriänpuisto P",564,64.9897627540414,25.5627091721438,,,,
120678,"Manttaalitie P",564,65.0293772198508,25.5508942874197,,,,
120806,"Oulunsuun koulu P",564,65.0077536465676,25.528292712557,,,,
120415,"Ojatie E",564,65.0847756084215,25.6767397216433,,,,
98706,"Heikkilänkankaan th P",564,64.9710552106533,25.6135855533597,,,,
120885,"Höyhtyä E",564,64.9976098545989,25.484085266239,,,,
120750,"Värtöntie P",564,65.0194972767682,25.5203079032391,,,,
148448,"Rippala E",564,65.1922691721658,25.3623906217576,,,,
120509,"Kerttulanpuisto P",564,65.0646831303617,25.5071199311336,,,,
307162,"Sarvisuontie E",564,64.9987270618513,25.6162850020963,,,,
148159,"Riihipellontie E",564,64.9178991780602,25.8174138879902,,,,
101638,"Putkonen E",564,65.1315784216351,25.7013698006668,,,,
120922,"Nuolihaukka E",564,64.9912787118727,25.5261067789882,,,,
120616,"Meri-Toppila P",564,65.0457046686573,25.4383904999603,,,,
98507,"Piltonen P",564,65.1122525013711,25.7277791744631,,,,
120842,"OYS asunnot P",564,65.0026217847433,25.5270829597799,,,,
189724,"Hepo-oja E",564,64.9067254219574,25.8333551596773,,,,
101731,"Karjalankylä E",564,65.3392125113015,25.7075301078115,,,,
152860,"Kassinen P",564,64.9831989906205,25.9627004076279,,,,
120829,"Sarkkapuisto P",564,65.0051545413024,25.529721306538,,,,
121106,"Ropinakuja E",564,64.95746362681,25.5527952475915,,,,
98501,"Jääli th P",564,65.0946815298334,25.6825499583555,,,,
101264,"Saviharju P",564,65.0392159110772,25.7176538907412,,,,
120592,"Solmutie P",564,65.048544316554,25.4519854403503,,,,
101500,"Luukela E",564,65.2327526125531,25.3609255418072,,,,
188493,"Typpitie E",564,65.0273578694743,25.512216933216,,,,
98480,"Korvensuoran koulu P",564,65.0415827563031,25.5656079768201,,,,
184261,"Aalto E",564,65.301705437921,25.6995411985889,,,,
190224,"Karvolankuja P",564,64.9497813810735,25.3950509302201,,,,
184155,"Kurkelantie E",564,65.0187468633342,25.5122175878678,,,,
120705,"Laanilan koulu E",564,65.0240333770339,25.5185810842356,,,,
150264,"Nurmioja E",564,65.1313670489365,25.6194876100378,,,,
120462,"Possakan th E",564,65.0747987928166,25.4275439911281,,,,
120812,"Rautasaari E",564,65.008688224634,25.4770291504281,,,,
120830,"Sarkkapuisto E",564,65.0051356510241,25.5297316352729,,,,
120083,"Heinonpolku E",564,65.2220262716323,25.3009378629793,,,,
150257,"Kiviperäntie P",564,65.0670743097121,25.519447079497,,,,
187708,"Jokelantie koulukeskus E",564,65.1755960491571,25.3657270352712,,,,
188509,"Alavantie E",564,65.0484658720702,25.5871349922503,,,,
101067,"Hailuodon risteys E",564,64.9555206893246,25.3865456633308,,,,
101623,"Kuivasjärven th P",564,65.1488392778625,25.6356723806507,,,,
310707,"Sangintie P",564,65.0017318299949,25.5684712543751,,,,
310710,"Savikiven polku E",564,64.9970384938143,25.5542266797697,,,,
148276,"Joloskylä P",564,65.1380762852968,26.1393794514998,,,,
307290,,564,64.9941260882578,25.5056053794985,,,,
148243,"Joutsensuo E",564,64.9884613205304,25.6480742553649,,,,
150321,"Länsikuja E",564,65.1792960030025,25.3363896354833,,,,
101624,"Kuivasjärven th E",564,65.1484571173512,25.6381229688571,,,,
148438,"Jokikylän th P",564,65.1936195112014,25.4503256270624,,,,
98529,"Nivanperä P",564,65.1596419951753,25.9695162237178,,,,
150322,"Kärnäntie P",564,65.1807390373321,25.3204162947744,,,,
171800,"Vesalantie E",564,64.9709108517024,25.4914740232133,,,,
120378,"Holopaisenkuja P",564,65.0970768986919,25.4192192320785,,,,
183967,"Savotta-aukio P",564,64.9448968519642,25.5728825613999,,,,
186022,"Pomolantie P",564,65.2197894551629,25.3007617649665,,,,
120577,"Välskärintie P",564,65.0504151820055,25.6053534412618,,,,
120722,"Yrjänäntie E",564,65.0232434482445,25.5310056843423,,,,
308742,"Svaaninpuisto E",564,64.9963882092525,25.5256566530832,,,,
120805,"Kastellinpolku E",564,65.0078452620597,25.5337603117854,,,,
148161,"Anttosentie P",564,64.9130479324006,25.8243375929703,,,,
148250,"Holtinkylä E",564,65.0039013739993,25.7251778458021,,,,
101086,"Pajuniemi E",564,64.9824336492623,25.2704034043053,,,,
169655,"Salonpää PP",564,64.9634483036758,25.240968013345,,,,
187988,"Lepola P",564,64.9519927760204,25.5084205568777,,,,
307213,"Kiulukangas P",564,65.0283513755089,25.5737827128438,,,,
181286,"Automaatiotie P",564,64.9322044178994,25.3836060711008,,,,
101053,"Karhuojan th E",564,64.9337563664852,25.3988417100116,,,,
171795,"Lentokentän th P",564,64.9563692586005,25.5048703418482,,,,
120748,"Kursutie P",564,65.0183975684938,25.5234265438597,,,,
101316,"Vapo E",564,65.0157651621314,26.1125380867619,,,,
101279,"Siltala P",564,65.0269978903207,25.9942325978861,,,,
120565,"Johdinkuja P",564,65.0547983504035,25.5962638731479,,,,
169586,"Toppilansaarentie E2",564,65.0320131528514,25.4260281517625,,,,
304237,"Professorintie E",564,65.010007389742,25.5070124149856,,,,
183979,"Otsonkuja E",564,64.9791097217041,25.516970428305,,,,
500842,"Puulinnanmaa E",564,65.0555293727191,25.4637394141657,,,,
309976,"Ritaharjun koulu E",564,65.0802629282262,25.4565790809668,,,,
148261,"Kääriä P",564,65.0613221257455,26.1904856633412,,,,
183969,"Lähimetsä E",564,64.9464723006041,25.5700998669792,,,,
120930,"Suohaukka E",564,64.988406698301,25.5230068539676,,,,
120481,"Talvikkitie E",564,65.0726773920479,25.4280607456279,,,,
101676,"Halajärventie P",564,65.3687846201518,25.8255194926846,,,,
150323,"Ervastinranta E",564,65.1814311416003,25.3106941300543,,,,
120975,"Snellmanintie P",564,64.9818134379573,25.4962530657936,,,,
190167,"Kaakkurinkulman th P",564,64.9600922093896,25.5282955395837,,,,
120786,"Raksila P",564,65.0117885565584,25.4905539808591,,,,
120687,"Nallikari P",564,65.0282238850125,25.4156269030529,,,,
190672,"Hakkuutie E",564,64.9464071439219,25.5769219484132,,,,
120892,"Hanhitie E",564,64.9958044371141,25.4952136921765,,,,
118979,"Saaristonkatu 2 E",564,65.0097444104955,25.4737919768695,,,,
148249,"Holtinkylä P",564,65.003922261847,25.7248007917088,,,,
150218,"Ratsastuskoulu E",564,64.9347116687844,25.7204439601066,,,,
120090,"Repolantie E",564,65.213030732305,25.3075269232613,,,,
120864,"Knuutila E",564,64.9984997564682,25.554732740009,,,,
307209,"Loimukoivunpuisto P",564,65.0318313125666,25.5603522111242,,,,
101595,"Haapakangas P",564,65.1637220203424,25.3632735426204,,,,
148122,"Turkka P",564,64.9496381711091,25.7294893293578,,,,
187987,"Lepola E",564,64.9518716225935,25.5083538262499,,,,
120573,"Oulunseläntie E",564,65.0560708930404,25.4277880301437,,,,
120986,"Kivipellon aukio P",564,64.9775500504255,25.5862072581684,,,,
310727,"Rauhanyhdistys E City",564,65.0061275360909,25.5086585029344,,,,
98500,"Jääli th E",564,65.0945689842882,25.6822033158123,,,,
148284,"Pajusalmi E",564,65.0386622770396,26.2030268615298,,,,
190185,"Parola P",564,65.0320054729036,26.0528428687533,,,,
101071,"Niemenväli E",564,64.9652635223645,25.3665654099691,,,,
120560,"Rakentajantie P",564,65.0569851284529,25.4587301144678,,,,
101311,"Seluskajärvi th E",564,64.9877204180665,26.0435060436145,,,,
184150,"Jäähalli P",564,65.0090535193583,25.4927916132415,,,,
190221,"Oulunsalo-talo P",564,64.9366760895785,25.3982060925081,,,,
101294,"Ukonkangas E",564,65.0299494805133,26.1149367947105,,,,
190203,"Oikoreitti E",564,65.0697549969069,25.8557118275052,,,,
101680,"Yli-Ii P",564,65.3732289536417,25.8443188487258,,,,
187991,"Haapakangas E",564,65.1638365987081,25.3628570789083,,,,
310723,"Tahtimarssi E",564,65.0088511710269,25.5966642667521,,,,
120720,"Parkkisenkangas E",564,65.0228386032543,25.541452574386,,,,
98522,"Kalajärvi E",564,65.1490810004077,25.9157360515476,,,,
101342,"Ojakankaantie I",564,64.9640180567345,26.3698647686354,,,,
101554,"Pönkönkari P",564,65.059529061518,25.4271788128944,,,,
120360,"Kuokkamaa E",564,65.1107119207366,25.3434955696973,,,,
98724,"Pikkuharjutie E",564,64.9300900799174,25.7394536993917,,,,
307161,"Juoksupolku E",564,64.9975297999628,25.6114926525977,,,,
121174,"Teeritie P",564,64.9405920646665,25.3711308460079,,,,
120822,"Ratakatu P",564,65.0071520969253,25.4832636504793,,,,
309975,"Ritaharjun koulu P",564,65.0802659079762,25.4559354354133,,,,
120511,"Veitikka P",564,65.0653922148832,25.4199597656758,,,,
307159,"Kuntolenkki E",564,64.9957991496534,25.6029476488674,,,,
150157,"Pitkäkankaantie E",564,64.9414672711748,25.3968425034965,,,,
310626,"Kontinkangas",564,65.010644896135,25.5129241054026,,,,
120855,"Svaanin th E",564,65.0016113606973,25.5283310370204,,,,
150283,"Topinperä E",564,65.1462572317195,25.3409479349931,,,,
184255,"Autiontie E",564,65.3059820977365,25.6999440394996,,,,
150392,"Kaisto P (EP)",564,65.2973401887722,25.627121472227,,,,
307173,"Laivakankaan koulu P",564,65.0838103414787,25.7038836643656,,,,
121009,"Kaskiahonkuja E",564,64.9723835516763,25.596680675199,,,,
120623,"Järvenkorventie P",564,65.0417575173612,25.4987062631953,,,,
150248,"Syynimaa P",564,65.0524473410988,25.4769232115095,,,,
310858,"Kettumetsä E",564,65.0836281618492,25.4647830966212,,,,
184162,"Intiöntie P",564,65.016963170302,25.4968583372278,,,,
184254,"Autiontie P",564,65.3071391920959,25.700052637574,,,,
150261,"Auranmaja P",564,65.0827980586855,25.5472232873153,,,,
120898,"Knuutilankangas P",564,64.9931550369105,25.5614842929545,,,,
189525,"Isohalmeenmaa P",564,65.138457322197,25.8442379536441,,,,
101567,"Kempeleentie P",564,65.0001275349438,25.4640273745205,,,,
120548,"Teknologiakylä E",564,65.0586811992752,25.4587220150508,,,,
121090,"Sadekuja E",564,64.9591691730198,25.5529348846723,,,,
120974,"Jättikivenkatu E",564,64.9818787853027,25.5696484361611,,,,
184137,"Madetojanraitti P",564,65.0073628871082,25.4770720448521,,,,
309606,"Yli-Ii L",564,65.3721234230943,25.8395879982583,,,,
150354,"Tenttutie",564,65.1741287327405,25.4763543839831,,,,
101523,"Luostarinvainio P",564,65.1472028890861,25.3514190330761,,,,
308262,"Torikauppa P",564,65.0125446267852,25.4686067092814,,,,
120940,"Patamäki E",564,64.9854682177962,25.5714663839418,,,,
183951,"Ulkometsäntie E",564,64.950847354469,25.5555807373596,,,,
120461,"Possakan th P",564,65.0749156597349,25.427546190098,,,,
189671,"Pukintie E",564,64.9415604605815,25.7516109826179,,,,
188507,"Korvensuora P",564,65.0444735613478,25.5748667857839,,,,
150286,"Oravankoulu E",564,65.1346480580346,25.3434966883483,,,,
150225,"Sutelantie P",564,64.927011963077,25.7528845285018,,,,
120861,"Kollaanpuisto E",564,65.0018163174779,25.4804516878237,,,,
14044,"Nuorisoseura P",564,65.076523664806,25.8511695243027,,,,
120854,"Svaanin th P",564,65.0016241424658,25.5285607404474,,,,
98534,"Arkala I",564,65.1837069076203,26.1432185815927,,,,
101807,"Kujansuu I",564,65.4895228304405,26.0347895997073,,,,
150341,"Lohisaarentie E",564,65.1879242282162,25.3910710159069,,,,
120566,"Palloiluhalli E",564,65.0556651559866,25.4744382680797,,,,
101276,"Hautasuo th E",564,65.030724758683,25.971189148498,,,,
120700,"Nallikari E",564,65.0282377281943,25.415538167178,,,,
120356,"Alavainio P",564,65.1118269377146,25.3481411183464,,,,
148451,"Huvipolku P",564,65.1931427817679,25.3507649838759,,,,
190198,"Karpinlampi E",564,65.1773859052892,25.54568928412,,,,
101593,"Simppula E",564,65.1661478624899,25.3529848482445,,,,
120557,"Ylioppilaskylä P",564,65.0576362619069,25.47233355663,,,,
120209,"Kauppakuja E",564,65.1754848458298,25.3505590913931,,,,
120410,"Järvitie E",564,65.0844816904372,25.6989514135375,,,,
171803,"Kaakkurin th P",564,64.9747378136852,25.4883156187177,,,,
150347,"Metsärinta E",564,65.1902429599461,25.4167083564469,,,,
150290,"Seurankuja P",564,65.1290429072991,25.3525431795406,,,,
120859,"Karjaportti E",564,65.001028173648,25.4913725978183,,,,
101672,"Yli-Iin vanhainkoti E",564,65.3623758982787,25.8218955136609,,,,
120638,"Tervahovintie P",564,65.040012292533,25.4601126800811,,,,
150327,"Pappilanlahti E",564,65.1880367084907,25.2988235929629,,,,
148241,"Taimikko E",564,64.984783010445,25.6207455401115,,,,
150313,"Seljäntie I",564,65.1621758330312,25.6522341620062,,,,
101659,"Sinkontie P",564,65.1103965875452,25.8098046959821,,,,
150292,"Vainiola P",564,65.1455439484451,25.3564192035889,,,,
120928,"Mäntyrinne P",564,64.9878812807085,25.5640657034544,,,,
152759,"Polvisuontie E",564,65.0449231722701,25.6486008471398,,,,
120963,"Snellmankoti P",564,64.9838221609684,25.4920583690342,,,,
184252,"Maalismaantie P",564,65.313377821206,25.6878034665049,,,,
101346,"Vähä-Vuotto th L",564,64.9509603594895,26.524621219951,,,,
120818,"Kastellin kirkko E",564,65.0061312999757,25.5409665965829,,,,
120525,"Tapiontie E",564,65.0627927904227,25.4784571828334,,,,
120874,"Kotkantie P",564,64.9980991201713,25.5136503015029,,,,
120730,"Metsotie E",564,65.0208538308663,25.5352223617005,,,,
101712,"Mettovaaran puutarha E",564,65.3091485978836,25.6066785802849,,,,
183964,"Metsokankaan koulu P",564,64.9437358033323,25.5423729646153,,,,
190222,"Lassila E",564,64.9454169884659,25.3992241942998,,,,
101524,"Luostarinvainio E",564,65.1464603827277,25.3517372913852,,,,
189524,"Isohalmeenmaa E",564,65.1381712595723,25.8422545890693,,,,
121091,"Kaakkurinojantie P",564,64.9604418947873,25.5419394866489,,,,
120931,"Jalohaukka E",564,64.9880508352045,25.5176695556101,,,,
301730,,564,64.9709167167129,25.5212315895705,,,,
152836,"Kinnunen P",564,65.0004225413141,25.8552838736765,,,,
310709,"Savikiven polku P",564,64.9970168315805,25.554364072823,,,,
120987,"Kivipellon aukio E",564,64.9775034747493,25.5863962094418,,,,
120711,"Myllytie P",564,65.0252984759409,25.4787248495692,,,,
190291,"Nurmelantie E",564,64.894895080904,25.788962887447,,,,
121121,"Porttiväylän alikulku P",564,64.9548977540379,25.5242862899596,,,,
120082,"Mustakangas P",564,65.2245666085916,25.3030794842084,,,,
120429,"Järvitie P",564,65.0844969164612,25.6987165442236,,,,
120684,"Hartaantie P",564,65.0280054730612,25.4570681344605,,,,
152758,"Rasilantie P",564,65.0440518235771,25.6764881188755,,,,
101072,"Niemenväli P",564,64.9658127259505,25.3649010934726,,,,
101713,"Mettovaaran puutarha P",564,65.3090320982362,25.608622238825,,,,
120735,"Koskenniska E",564,65.0202753313056,25.4915119565736,,,,
98544,"Porokangas P",564,65.2030651985175,26.3014130949802,,,,
191216,"Kallio I",564,65.0960511914651,26.3962059542751,,,,
101344,"Alavuoton th L",564,64.9617684298299,26.4816748182032,,,,
150360,"Häyrysenniemi th E",564,65.2198765885849,25.3334759165697,,,,
101811,"Tumeliuksentie I",564,65.4867892039784,26.0040451090458,,,,
101801,"Säynäjäsuo th I",564,65.4925272629459,26.0804777687772,,,,
98719,"Määtäntie P",564,64.9411454811137,25.6957998212002,,,,
120394,"Kehätie P",564,65.0910213182704,25.695421426118,,,,
101536,"Holstinmäki E",564,65.1131186883193,25.3831890109448,,,,
121045,"Kaiposenniementie E",564,64.9639994871572,25.6692792103843,,,,
120893,"Hanhitie P",564,64.9958084026842,25.4951986475115,,,,
184145,"Kiviharjuntie P",564,65.0092792162296,25.5087433090652,,,,
101622,"Hurunmäki E",564,65.1541106085578,25.6191915794044,,,,
120079,"Kalastajantie E",564,65.2250637530086,25.3109214985017,,,,
300419,"Puulinnanmaa P",564,65.0556237285947,25.4620884545652,,,,
187127,"Ylikiimingin th P",564,65.0632785968036,25.6338883090449,,,,
101652,"Kauppareitti E",564,65.1261668903504,25.7819129142461,,,,
152855,"Pöytäkangas E",564,64.9851370868896,25.9215165142271,,,,
191213,"Toivanen P",564,64.9027971919662,25.839942142208,,,,
148089,"Oulujoentie E",564,65.0095897050349,25.5735717870054,,,,
189738,"Marttilanharju I",564,65.0285647294988,26.1712725787675,,,,
101594,"Simppula P",564,65.1661983469978,25.3525365732516,,,,
120934,"Vaskitie E",564,64.9894329100259,25.5073173106227,,,,
101608,"Saarijärvi E (Oulu)",564,65.1802050666206,25.5365682644875,,,,
101748,"Kiimingin th E",564,65.3664922562497,25.8161465946589,,,,
98720,"Määtäntie E",564,64.940349200616,25.6979908980165,,,,
150156,"Oulunsalo ry P",564,64.9395712651067,25.3976140815791,,,,
120751,"Koskenniska P",564,65.020406739723,25.4933524477221,,,,
307180,,564,65.0858823525875,25.6826872816124,,,,
307190,"Ritakierros E",564,65.0836293512679,25.4542815596131,,,,
169616,"Oulu  linja-autoasema L7",564,65.0089086128204,25.4841709065318,,,,
300625,"Ponnontie E",564,65.1310534412985,25.7939852484068,,,,
120821,"Ratakatu E",564,65.0070832899406,25.4829457021865,,,,
148292,"Kirveslä E",564,65.081632773507,26.3146739289482,,,,
120860,"Karjaportti P",564,65.0010819979332,25.4913722887709,,,,
150398,"Mäntyläntie E",564,65.2918114227995,25.668742760559,,,,
169612,"Oulu  linja-autoasema L3",564,65.0091624271748,25.4845428091224,,,,
101662,"Koiteli E",564,65.0989006587462,25.8127983747075,,,,
101353,"Koistinen L",564,64.9445997246766,26.5468990920537,,,,
307201,"Jahtireitti E",564,65.0921349080962,25.4451796210644,,,,
185771,"Paulaharjuntie P",564,65.0311361642935,25.4725356801062,,,,
148443,"Saarikankaantie P",564,65.1969152292426,25.3852607693173,,,,
121195,"Riisikuja P",564,64.9335166755435,25.4016051375864,,,,
98505,"Putkonen th P",564,65.1047122005193,25.699680148395,,,,
120666,"Tokkatie E",564,65.0306332851619,25.5530224567118,,,,
120590,"Rantapellontie E",564,65.0511927092799,25.4329762047262,,,,
98713,"Madekosken th P",564,64.9542545025983,25.663002018861,,,,
120913,"Tinatie P",564,64.9928427573809,25.5065985841574,,,,
101806,"Ojaniemi L",564,65.4888509894673,26.0532154318326,,,,
120745,"Metsola P",564,65.019408245111,25.534715639756,,,,
310598,"Hietasaarentie P",564,65.0305765345135,25.4479358157056,,,,
120659,"Huonesuonpuisto P",564,65.0337576156002,25.5638247239662,,,,
231937,"Onkamontie P",564,65.1920236820437,25.4749617904477,,,,
121162,"Raitakuja P",564,64.9424940060588,25.3895439826313,,,,
120286,"Kotikumpu P",564,65.1317121872905,25.7660279232886,,,,
98535,"Patsala E",564,65.18619836675,26.1642966793232,,,,
305658,"Ojakankaantie L",564,64.9643792552368,26.3701746168272,,,,
120125,"Jokikylän koulu E",564,65.1916448909157,25.4616689386922,,,,
101642,"Honkimäentie P",564,65.1328231763773,25.7440092185875,,,,
310594,"Lipporanta P",564,65.0301896377422,25.4541951824703,,,,
152757,"Rasilantie E",564,65.0440238103361,25.6788061089786,,,,
148439,"Torvelantie P",564,65.2002300049866,25.3997088939083,,,,
189739,"Päästäjäinen P",564,65.0416140846068,26.228929545489,,,,
150240,"Mikkolantie E",564,64.9542742551946,25.6647754403543,,,,
150160,"Lassila P",564,64.9454716255241,25.3992045510767,,,,
150374,"Katajakorpi th",564,65.1946345738133,26.2304083363308,,,,
120960,"Jättikivenkatu P",564,64.9819129616178,25.5694559722887,,,,
101666,"Siltatie E",564,65.1325647685567,25.7961061884886,,,,
120715,"Merikoskenkatu P1",564,65.0249620489555,25.4699563539244,,,,
150385,"Jakkuranta P",564,65.3009721850397,25.6057495674411,,,,
148306,"Pellonpää I",564,65.0952350971741,26.5435864325617,,,,
310820,"Jokivarrentie",564,65.2012210157948,25.485442832088,,,,
120572,"Oulunseläntie P",564,65.0567889031323,25.4277873105843,,,,
190187,"Ukkolanmäki P",564,65.0328740989502,26.090869604244,,,,
120737,"Toivoniemi P",564,65.0222795599459,25.4683559157506,,,,
150353,"Jokelantie 630 P",564,65.1794093466511,25.4575944262771,,,,
184171,"Vaarankatu E",564,65.0112047981652,25.4767322711806,,,,
184259,"Leskelä P",564,65.3025447126915,25.5619434522081,,,,
150263,"Kalimeenoja P",564,65.0872126297056,25.5569912157379,,,,
120672,"Oravitie",564,65.0317092737924,25.4704486984567,,,,
120551,"Tutkijantie E",564,65.059145907467,25.4489068661355,,,,
121063,"Sanginsuun koulu P",564,64.9626603684366,25.6760309439643,,,,
150305,"Pöllönperä E",564,65.1318715004086,25.3713102269723,,,,
120453,"Jylkynkangas",564,65.0773790154922,25.5202682406916,,,,
120294,"Ukkola P",564,65.1293142320207,25.7859834927277,,,,
101350,"Holappa L",564,64.9424054859628,26.5585927933252,,,,
101087,"Pajuniemi P",564,64.9832143819749,25.2688484361108,,,,
148296,"Kauppilantörmä I",564,65.0963421742819,26.3588792359102,,,,
150307,"Sarkkiharju E",564,65.12435149249,25.3790323769834,,,,
120717,"Kaplastie P",564,65.0222334644449,25.5591149720604,,,,
120447,"Itälahdentie E",564,65.0803499187175,25.3974806583432,,,,
98492,"Välikuja E",564,65.0699633658783,25.6526208855743,,,,
101352,"Yli-Vuotto L",564,64.9456461593575,26.5436859769104,,,,
187979,"Välikyläntien th I",564,65.0618076686759,25.6413716474386,,,,
120912,"Tinatie E",564,64.9920771225022,25.5062523901434,,,,
101327,"Jokelankylä P",564,64.9806975668216,26.2234463797543,,,,
101725,"Suoranpää P",564,65.3340046504384,25.6835376486251,,,,
120443,"Jalopuuntie P",564,65.079249488431,25.4106823574692,,,,
184148,"Uimahalli P",564,65.0091451175321,25.4975690498997,,,,
101799,"Yli-Tannila I",564,65.5000324215649,26.0935299440647,,,,
120765,"Kanervatie E",564,65.0159007515727,25.5510508384554,,,,
120980,"Kangasrinne P",564,64.9788107843335,25.5821258755655,,,,
120811,"Rautasaari P",564,65.00860466365,25.4777318506402,,,,
101288,"Parolanmäki E",564,65.0326215783092,26.0482512948451,,,,
120685,"Vaakunakylä P",564,65.0297222048682,25.4414369999085,,,,
148288,"Kiviharju P",564,65.0444863082574,26.2389382458074,,,,
120423,"Kaijantie E",564,65.0885854525818,25.4108859371005,,,,
184133,"Tullikirjurinraitti P",564,65.0055674371277,25.4730334132651,,,,
148536,"Pahkalantie th I",564,65.374276769268,25.8519530341,,,,
187709,"Ammustie E",564,65.1929059711865,25.4171632890383,,,,
120699,"Vellamontie P",564,65.0274776922386,25.4212139332701,,,,
307153,"Hallituskatu P",564,65.0117177765187,25.478741790802,,,,
120567,"Palloiluhalli P",564,65.0557512030308,25.4744125271548,,,,
231895,"Uusi-Kääriä E",564,65.0602133609125,26.1903920669455,,,,
101292,"Tielaitos E",564,65.0316164755951,26.1033926887787,,,,
148274,"Jolosjärvi E",564,65.1336148190108,26.1441038227922,,,,
120559,"Rakentajantie E",564,65.0569044152368,25.4587296743131,,,,
169581,"Kahvelitie P",564,65.0299367551086,25.4383972721694,,,,
101667,"Siltatie P",564,65.1325155611391,25.7961615731263,,,,
190194,"Oulunlahti P",564,64.9610310408397,25.5028208354561,,,,
307192,"Klippatie P",564,65.0842920402951,25.4466849403312,,,,
121037,"Kaiannontie P",564,64.9690886273059,25.5290418418312,,,,
190191,"Murtomaa E",564,65.0201481777003,26.1170007564248,,,,
120617,"Huurrekuja E",564,65.0418259352758,25.6014403153255,,,,
150231,"Pikkarala P",564,64.9143636601889,25.7652863223258,,,,
121199,"Riisikuja E",564,64.9336033970052,25.4021713068126,,,,
148450,"Huvipolku E",564,65.1928535530639,25.3519235611052,,,,
307151,"Harjapäänkatu P",564,65.0035362672643,25.4698704646705,,,,
189526,"Mäkikangas P",564,65.1703874856685,26.0514008679184,,,,
184153,"Raksilan marketit E",564,65.0102515026632,25.4882829419207,,,,
101734,"Suvanto P",564,65.3446642836232,25.7256574858887,,,,
101051,"Oulunsalon museo P",564,64.936525674658,25.4175050548386,,,,
120439,"Palosuontie P",564,65.0789070247072,25.4252676928839,,,,
98527,"Suoperä P",564,65.156806810516,25.9544777116535,,,,
187935,"Välikyläntien th L",564,65.0625822068584,25.6387482957262,,,,
307196,"Loukkutie E",564,65.0863026794628,25.4449166394149,,,,
150401,"Turtinen E",564,65.2953472140152,25.6940693894177,,,,
184521,"Joloksentie P",564,65.0309126247175,26.1464872846393,,,,
148254,"Kontiokoski P",564,65.0031482342218,25.7633905532909,,,,
120766,"Erkkola P",564,65.0155589867811,25.5283467095744,,,,
